<kml xmlns="http://www.opengis.net/kml/2.2"><Document><name>cache.kml</name><Style id="icon-1534-0288D1-normal"><IconStyle><scale>1</scale><heading>1</heading><color>ffd18802</color><colorMode>normal</colorMode><Icon><href>https://www.gstatic.com/mapspro/images/stock/503-wht-blank_maps.png</href></Icon></IconStyle><LabelStyle><color>ffd18802</color><colorMode>normal</colorMode><scale>0</scale></LabelStyle></Style><Style id="icon-1534-0288D1-highlight"><IconStyle><scale>1</scale><heading>1</heading><color>ffd18802</color><colorMode>normal</colorMode><Icon><href>https://www.gstatic.com/mapspro/images/stock/503-wht-blank_maps.png</href></Icon></IconStyle><LabelStyle><color>ffd18802</color><colorMode>normal</colorMode><scale>1.1</scale></LabelStyle></Style><StyleMap id="icon-1534-0288D1"><Pair><key>normal</key><styleUrl>#icon-1534-0288D1-normal</styleUrl></Pair><Pair><key>highlight</key><styleUrl>#icon-1534-0288D1-highlight</styleUrl></Pair></StyleMap><Placemark id="ChIJnztKGSdEiEgR3i8MiYxQg8M" search_term="Godshot Studio 1143 Pollokshaws Road, G41 3YH Glasgow, United Kingdom"><name>Godshot studio</name><description>https://maps.google.com/?cid=14088192623869964254
            
            1143 Pollokshaws Rd, Shawlands, Glasgow G41 3YH, UK</description><styleUrl>#icon-1534-0288D1</styleUrl><Point><extrude>0</extrude><altitudeMode>clampToGround</altitudeMode><coordinates>-4.2807754,55.830138100000006,0</coordinates></Point></Placemark><Placemark id="ChIJ4QNw8-1lE0cRxCMcfVb91N4" search_term="prostor kavárna nám. Mezi Šenky 120, 763 21 Slavičín, Czech Republic"><name>Prostor kavárna a bistro</name><description>https://maps.google.com/?cid=16056737119390671812
            
            nám. Mezi Šenky 120, 763 21 Slavičín, Czechia</description><styleUrl>#icon-1534-0288D1</styleUrl><Point><extrude>0</extrude><altitudeMode>clampToGround</altitudeMode><coordinates>17.8747142,49.0893218,0</coordinates></Point></Placemark><Placemark id="ChIJGWOYZaVljEcRzFaE8UyxK5I" search_term="Utopia coffee shop Rue des Eaux-Vives 8, 1207 Geneva, Switzerland"><name>Utopia coffee (Eaux vives)</name><description>https://maps.google.com/?cid=10532707097563649740
            
            Rue des Eaux-Vives 8, 1207 Genève, Switzerland</description><styleUrl>#icon-1534-0288D1</styleUrl><Point><extrude>0</extrude><altitudeMode>clampToGround</altitudeMode><coordinates>6.1574051,46.203181699999995,0</coordinates></Point></Placemark><Placemark search_term="Throwback Coffee and Stories Strada Doctor Petre Herescu 26, 050587 Bucharest, Romania" id="ChIJG_C4mrb_sUARjKanDrpQR78"><name>Throwback Coffee</name><description>https://maps.google.com/?cid=13783073944630699660
            
            Strada Doctor Petre Herescu 26, București 050587, Romania</description><styleUrl>#icon-1534-0288D1</styleUrl><Point><extrude>0</extrude><altitudeMode>clampToGround</altitudeMode><coordinates>26.0699562,44.4293908,0</coordinates></Point></Placemark><Placemark id="ChIJ_f3p_thgwUcRDXyodhfagUA" search_term="Koffie Onan Parijsstraat 28, 3000 Leuven, Belgium"><name>Coffee Onan</name><description>https://maps.google.com/?cid=4648236084732918797
            
            Parijsstraat 28, 3000 Leuven, Belgium</description><styleUrl>#icon-1534-0288D1</styleUrl><Point><extrude>0</extrude><altitudeMode>clampToGround</altitudeMode><coordinates>4.6990592,50.8785781,0</coordinates></Point></Placemark><Placemark id="ChIJd3lrdySpTkcRfruskmJFszI" search_term="CENTRO Roastery Strada Regina Maria 2, 510103 Alba Iulia, Romania"><name>CENTRO Roastery</name><description>https://maps.google.com/?cid=3653340012397509502
            
            Strada Regina Maria 2, Alba Iulia 510103, Romania</description><styleUrl>#icon-1534-0288D1</styleUrl><Point><extrude>0</extrude><altitudeMode>clampToGround</altitudeMode><coordinates>23.5832476,46.07124,0</coordinates></Point></Placemark><Placemark id="ChIJnSDYRb6TVxMRCvdGe6gL8f4" search_term="Flow microroastery Kotouniou 4 &amp;, Paster, Veria, 591 00 Veria, Greece"><name>φλόου microroastery</name><description>https://maps.google.com/?cid=18370477173271623434
            
            Kotouniou 4 &amp;, Paster, Veria 591 00, Greece</description><styleUrl>#icon-1534-0288D1</styleUrl><Point><extrude>0</extrude><altitudeMode>clampToGround</altitudeMode><coordinates>22.207103,40.52410520000001,0</coordinates></Point></Placemark><Placemark search_term="Bonpland Coffee Proskauer Str. 34, 10247 Berlin, Germany" id="ChIJ-SusPPBPqEcRulF7Lu9GhXM"><name>Café Bonpland</name><description>https://maps.google.com/?cid=8324137479355191738
            
            Proskauer Str. 34, 10247 Berlin, Germany</description><styleUrl>#icon-1534-0288D1</styleUrl><Point><extrude>0</extrude><altitudeMode>clampToGround</altitudeMode><coordinates>13.4604646,52.516354,0</coordinates></Point></Placemark><Placemark search_term="Bruma Cafe C. San Rafael, 37, 11100 San Fernando, Spain" id="ChIJU8fc_B_NDQ0RtAsm3uxfmDs"><name>BRUMA Café</name><description>https://maps.google.com/?cid=4294287715641723828
            
            C. San Rafael, 37, 11100 San Fernando, Cádiz, Spain</description><styleUrl>#icon-1534-0288D1</styleUrl><Point><extrude>0</extrude><altitudeMode>clampToGround</altitudeMode><coordinates>-6.1953374,36.4710296,0</coordinates></Point></Placemark><Placemark search_term="Good Coffee Roasting Co. 19 Mayıs, Okur Sk. No: 16A, 34736 Istanbul, Turkey" id="ChIJsQnh_fzHyhQRhdEEY8mxnyA"><name>Good Coffee Roasting Co.</name><description>https://maps.google.com/?cid=2350793009018491269
            
            19 Mayıs, Okur Sk. No: 16A, 34736 Kadıköy/İstanbul, Türkiye</description><styleUrl>#icon-1534-0288D1</styleUrl><Point><extrude>0</extrude><altitudeMode>clampToGround</altitudeMode><coordinates>29.09188,40.975502899999995,0</coordinates></Point></Placemark><Placemark search_term="Parcería Café C. Calderón de la Barca, 9, 41003 Sevilla, Spain" id="ChIJ9RYQ9HNtEg0R3sRY3y8Ks_A"><name>Parcería Café</name><description>https://maps.google.com/?cid=17344217790660789470
            
            Pl. Calderón de la Barca, 9, Casco Antiguo, 41003 Sevilla, Spain</description><styleUrl>#icon-1534-0288D1</styleUrl><Point><extrude>0</extrude><altitudeMode>clampToGround</altitudeMode><coordinates>-5.9911759,37.3997067,0</coordinates></Point></Placemark><Placemark search_term="Camera cu cafea Strada Ștefan cel Mare 26, 720002 Suceava, Romania" id="ChIJZ2-p5TD8NEcR5Cv1fwuUZu0"><name>Camera cu cafea</name><description>https://maps.google.com/?cid=17106523011725732836
            
            Strada Ștefan cel Mare 26, Suceava 720002, Romania</description><styleUrl>#icon-1534-0288D1</styleUrl><Point><extrude>0</extrude><altitudeMode>clampToGround</altitudeMode><coordinates>26.2593583,47.6439008,0</coordinates></Point></Placemark><Placemark search_term="Espressobar Kopi Soesoe Sumatraweg 15, 3072 ZP Rotterdam, Netherlands" id="ChIJZV6JLXw0xEcRygjOVge5-uk"><name>Espressobar Kopi Soesoe</name><description>https://maps.google.com/?cid=16859991596187125962
            
            Sumatraweg 15, 3072 ZP Rotterdam, Netherlands</description><styleUrl>#icon-1534-0288D1</styleUrl><Point><extrude>0</extrude><altitudeMode>clampToGround</altitudeMode><coordinates>4.4843329,51.901204,0</coordinates></Point></Placemark><Placemark search_term="FANABERIA Wrocławska 20, 48-300 Nysa, Poland" id="ChIJ3zbhRAXEEUcR9RjBAbF8N_s"><name>Fanaberia</name><description>https://maps.google.com/?cid=18102074326919485685
            
            Wrocławska 20, 48-300 Nysa, Poland</description><styleUrl>#icon-1534-0288D1</styleUrl><Point><extrude>0</extrude><altitudeMode>clampToGround</altitudeMode><coordinates>17.3350766,50.4761797,0</coordinates></Point></Placemark><Placemark id="ChIJ-QqH0hUnQg0RSoN4jNxokOE" search_term="Pastora Carrera de San Francisco, 12, 28005 Madrid, Spain"><name>PASTORA – Café &amp; Bottle Shop</name><description>https://maps.google.com/?cid=16253606351638922058
            
            Carrera de San Francisco, 12, Centro, 28005 Madrid, Spain</description><styleUrl>#icon-1534-0288D1</styleUrl><Point><extrude>0</extrude><altitudeMode>clampToGround</altitudeMode><coordinates>-3.7130559,40.410946,0</coordinates></Point></Placemark><Placemark search_term="PS coffee roasters Unit 1, Poplar House, Poplar square, W91 XC94 Naas, Ireland" id="ChIJgy4R8r14Z0gRPD-07BWFGVQ"><name>PS Coffee Roasters</name><description>https://maps.google.com/?cid=6060021102815756092
            
            Unit 1, Poplar House, Poplar square, Naas West, Naas, Co. Kildare, Ireland</description><styleUrl>#icon-1534-0288D1</styleUrl><Point><extrude>0</extrude><altitudeMode>clampToGround</altitudeMode><coordinates>-6.661733099999999,53.2198715,0</coordinates></Point></Placemark><Placemark id="ChIJ6YJ5BAWjoRQRQaZx5qQNF7A" search_term="Sapid the shop 25is Martiou 113, Petroupoli, 132 31 Petroúpolis, Greece"><name>Sapid - The Shop -</name><description>https://maps.google.com/?cid=12688625477031667265
            
            25is Martiou 113, Petroupoli 132 31, Greece</description><styleUrl>#icon-1534-0288D1</styleUrl><Point><extrude>0</extrude><altitudeMode>clampToGround</altitudeMode><coordinates>23.688006,38.040661199999995,0</coordinates></Point></Placemark><Placemark search_term="The Black Cup espresso bar Nečasova 31, 592 31 Nové Město na Moravě, Czech Republic" id="ChIJKweztIidDUcRDrFsCkCHa7E"><name>THE BLACK CUP - ESPRESSO BAR</name><description>https://maps.google.com/?cid=12784460676343836942
            
            Nečasova 31, 592 31 Nové Město na Moravě, Czechia</description><styleUrl>#icon-1534-0288D1</styleUrl><Point><extrude>0</extrude><altitudeMode>clampToGround</altitudeMode><coordinates>16.0726835,49.559543899999994,0</coordinates></Point></Placemark><Placemark search_term="Deep 15 Rue Glandeves, 13001 Marseille, France" id="ChIJj8835LjAyRIR4Dc1UxKS7pA"><name>Deep</name><description>https://maps.google.com/?cid=10443445193321822176
            
            15 Rue Glandeves, 13001 Marseille, France</description><styleUrl>#icon-1534-0288D1</styleUrl><Point><extrude>0</extrude><altitudeMode>clampToGround</altitudeMode><coordinates>5.3751768,43.293499,0</coordinates></Point></Placemark><Placemark id="ChIJNZ1C8iH3w0cRuZtaI_7SMlY" search_term="Kornél Sint-Lambertusstraat 1, 2600 Antwerp, Belgium"><name>Kornél</name><description>https://maps.google.com/?cid=6211258825054002105
            
            Sint-Lambertusstraat 1, 2600 Antwerpen, Belgium</description><styleUrl>#icon-1534-0288D1</styleUrl><Point><extrude>0</extrude><altitudeMode>clampToGround</altitudeMode><coordinates>4.4193653,51.1997217,0</coordinates></Point></Placemark><Placemark search_term="FABLE Rajska 20, 31-124 Krakow, Poland" id="ChIJLbw-HqBbFkcRW30mP8jJU6Y"><name>Fable Cafe</name><description>https://maps.google.com/?cid=11985144895253151067
            
            Rajska 20, 31-124 Kraków, Poland</description><styleUrl>#icon-1534-0288D1</styleUrl><Point><extrude>0</extrude><altitudeMode>clampToGround</altitudeMode><coordinates>19.9284799,50.0644709,0</coordinates></Point></Placemark><Placemark id="ChIJ43ICUyZv5kcR8Poo_R7Bljo" search_term="Espeletia Café 52 Rue Davy, 75017 Paris, France"><name>Espeletia Café - Coffee Roaster</name><description>https://maps.google.com/?cid=4221774039546919664
            
            52 Rue Davy, 75017 Paris, France</description><styleUrl>#icon-1534-0288D1</styleUrl><Point><extrude>0</extrude><altitudeMode>clampToGround</altitudeMode><coordinates>2.3233068,48.8917471,0</coordinates></Point></Placemark><Placemark search_term="Café Blá Lilienstraße 34, 81669 Munich, Germany" id="ChIJmxcdvXzfnUcRbwzkybwjFGo"><name>Café Blá - Specialty Coffee Shop</name><description>https://maps.google.com/?cid=7643773761302563951
            
            Lilienstraße 34, 81669 München, Germany</description><styleUrl>#icon-1534-0288D1</styleUrl><Point><extrude>0</extrude><altitudeMode>clampToGround</altitudeMode><coordinates>11.5863281,48.1292783,0</coordinates></Point></Placemark><Placemark search_term="Termoska Náměstí 79/3, 594 01 Velké Meziříčí, Czech Republic" id="ChIJvwyPH6hvDUcRgJojt5WFM84"><name>Termoska</name><description>https://maps.google.com/?cid=14858366473694583424
            
            3, Náměstí 79, 594 01 Velké Meziříčí, Czechia</description><styleUrl>#icon-1534-0288D1</styleUrl><Point><extrude>0</extrude><altitudeMode>clampToGround</altitudeMode><coordinates>16.0128357,49.355321499999995,0</coordinates></Point></Placemark><Placemark search_term="Anežka Anežská 812/12, Staré Město, 110 00 Prague, Czech Republic" id="ChIJMYdHd_iVC0cR4oE79gXOAWo"><name>Anežka</name><description>https://maps.google.com/?cid=7638612967998325218
            
            Anežská 812/12, 110 00 Praha 1-Staré Město, Czechia</description><styleUrl>#icon-1534-0288D1</styleUrl><Point><extrude>0</extrude><altitudeMode>clampToGround</altitudeMode><coordinates>14.4237592,50.092005,0</coordinates></Point></Placemark><Placemark id="ChIJDxjH6va8oRQR15WtfGbalPg" search_term="Handpickers Anaxagora 45, 177 78 Athens, Greece"><name>Handpickers Coffee Shop</name><description>https://maps.google.com/?cid=17912181751672575447
            
            Anaxagora 45, Tavros 177 78, Greece</description><styleUrl>#icon-1534-0288D1</styleUrl><Point><extrude>0</extrude><altitudeMode>clampToGround</altitudeMode><coordinates>23.6991962,37.963348,0</coordinates></Point></Placemark><Placemark search_term="My Little Melbourne Madách Imre út 3, 1075 Budapest, Hungary" id="ChIJr2Dg_kHcQUcRtOnmeg175-Q"><name>My Little Melbourne Coffee</name><description>https://maps.google.com/?cid=16494287458094475700
            
            Budapest, Madách Imre út 3, 1075 Hungary</description><styleUrl>#icon-1534-0288D1</styleUrl><Point><extrude>0</extrude><altitudeMode>clampToGround</altitudeMode><coordinates>19.0577454,47.4977226,0</coordinates></Point></Placemark><Placemark id="ChIJZ1Zh6q9feUgRgB4S03d-F20" search_term="La Bottega Milanese Bond Court 2, LS1 2JZ Leeds, United Kingdom"><name>La Bottega Milanese Park House</name><description>https://maps.google.com/?cid=7860890727705878144
            
            Park House, 24 Park Square W, Leeds LS1 2PW, UK</description><styleUrl>#icon-1534-0288D1</styleUrl><Point><extrude>0</extrude><altitudeMode>clampToGround</altitudeMode><coordinates>-1.5533481,53.7984926,0</coordinates></Point></Placemark><Placemark id="ChIJbSIvrqn4sUARctw8hCwtv2c" search_term="Madison Perfumery Strada George Călinescu 55, 011694 Bucharest, Romania"><name>Madison.eu</name><description>https://maps.google.com/?cid=7475743575678704754
            
            Strada George Călinescu 55, București 011694, Romania</description><styleUrl>#icon-1534-0288D1</styleUrl><Point><extrude>0</extrude><altitudeMode>clampToGround</altitudeMode><coordinates>26.0997821,44.4622223,0</coordinates></Point></Placemark><Placemark search_term="Shot me coffee Rúa dos Concheiros, 36, 15703 Santiago de Compostela, Spain" id="ChIJ18Gkz-H_Lg0RgHkmeOp9soY"><name>Shot me coffee</name><description>https://maps.google.com/?cid=9705958592928446848
            
            Rúa dos Concheiros, 36, 15703 Santiago de Compostela, A Coruña, Spain</description><styleUrl>#icon-1534-0288D1</styleUrl><Point><extrude>0</extrude><altitudeMode>clampToGround</altitudeMode><coordinates>-8.53403,42.88319,0</coordinates></Point></Placemark><Placemark id="ChIJx7csnrYLkkYRHu4tXVZYXP0" search_term="Kaffa Roastery Pursimiehenkatu 29A, 00150 Helsinki, Finland"><name>Kaffa Roastery</name><description>https://maps.google.com/?cid=18256564117406871070
            
            Pursimiehenkatu 29, 00150 Helsinki, Finland</description><styleUrl>#icon-1534-0288D1</styleUrl><Point><extrude>0</extrude><altitudeMode>clampToGround</altitudeMode><coordinates>24.9341025,60.158505600000005,0</coordinates></Point></Placemark><Placemark search_term="Coutume Esplanade 4 bis Espl. du Général de Gaulle, 92400 Paris, France" id="ChIJuUXD1jRl5kcRotmu816BlqU"><name>Coutume</name><description>https://maps.google.com/?cid=11931866507579939234
            
            8 bis Espl. du Général de Gaulle, 92400 Courbevoie, France</description><styleUrl>#icon-1534-0288D1</styleUrl><Point><extrude>0</extrude><altitudeMode>clampToGround</altitudeMode><coordinates>2.2509905999999997,48.8879105,0</coordinates></Point></Placemark><Placemark id="ChIJqTk9oSYDskAR_TQV64bi2Io" search_term="Beans &amp;amp;amp;amp;amp;amp; Dots 2 Bulevardul Primăverii 15, 011971 Bucharest, Romania"><name>Beans&amp;Dots Specialty Coffee Shop - MARe</name><description>https://maps.google.com/?cid=10004995641301087485
            
            Bulevardul Primăverii 15, București 011971, Romania</description><styleUrl>#icon-1534-0288D1</styleUrl><Point><extrude>0</extrude><altitudeMode>clampToGround</altitudeMode><coordinates>26.089046099999997,44.467805299999995,0</coordinates></Point></Placemark><Placemark id="ChIJC-EDf-ZRqEcRiVrnNG31igA" search_term="The Barn Mitte Auguststrasse 58, 10119 Berlin, Germany"><name>The Barn Café</name><description>https://maps.google.com/?cid=39113396173888137
            
            Auguststraße 58, 10119 Berlin, Germany</description><styleUrl>#icon-1534-0288D1</styleUrl><Point><extrude>0</extrude><altitudeMode>clampToGround</altitudeMode><coordinates>13.39818,52.5274383,0</coordinates></Point></Placemark><Placemark search_term="uncommon Eerste Constantijn Huygensstraat 63-H, 1054BT Amsterdam, Netherlands" id="ChIJ_aqZcKgJxkcRg5iFALtxj5I"><name>Uncommon Amsterdam</name><description>https://maps.google.com/?cid=10560784699188680835
            
            Eerste Constantijn Huygensstraat 63H, 1054 BT Amsterdam, Netherlands</description><styleUrl>#icon-1534-0288D1</styleUrl><Point><extrude>0</extrude><altitudeMode>clampToGround</altitudeMode><coordinates>4.8751823,52.3632851,0</coordinates></Point></Placemark><Placemark search_term="ROAST espressobar Laat 198, 1811 EN Alkmaar, Netherlands" id="ChIJ_X4PT7ZXz0cRWo_wR5nSbDo"><name>ROAST Espressobar</name><description>https://maps.google.com/?cid=4209971307463348058
            
            Laat 198, 1811 EN Alkmaar, Netherlands</description><styleUrl>#icon-1534-0288D1</styleUrl><Point><extrude>0</extrude><altitudeMode>clampToGround</altitudeMode><coordinates>4.7448567,52.6311956,0</coordinates></Point></Placemark><Placemark search_term="Allpress Espresso Bar 58 Redchurch St, Shoreditch, UK, E2 7DP London, United Kingdom" id="ChIJV_Via7ccdkgRvCItLvUmrNw"><name>Allpress Espresso Bar Shoreditch</name><description>https://maps.google.com/?cid=15901127218821931708
            
            58 Redchurch St, London E2 7DP, UK</description><styleUrl>#icon-1534-0288D1</styleUrl><Point><extrude>0</extrude><altitudeMode>clampToGround</altitudeMode><coordinates>-0.07426039999999999,51.524401,0</coordinates></Point></Placemark><Placemark search_term="Bonk coffee &amp;amp;amp;amp;amp;amp; bikes Vrbje 1B, 10000 Zagreb, Croatia" id="ChIJA5yMFjTXZUcRxbKxI_uxups"><name>Bonk</name><description>https://maps.google.com/?cid=11221477113740767941
            
            Vrbje ul. 1b, 10000, Zagreb, Croatia</description><styleUrl>#icon-1534-0288D1</styleUrl><Point><extrude>0</extrude><altitudeMode>clampToGround</altitudeMode><coordinates>15.9094632,45.794343,0</coordinates></Point></Placemark><Placemark search_term="TAZZE PAZZE Piazza 5 Lampadi 69r, 16123 Genova, Italy" id="ChIJ9bBMteBD0xIR61rk2xdlOvk"><name>TAZZE PAZZE Specialty Coffee</name><description>https://maps.google.com/?cid=17958777617241103083
            
            Piazza Cinque Lampadi, 71R, 16123 Genova GE, Italy</description><styleUrl>#icon-1534-0288D1</styleUrl><Point><extrude>0</extrude><altitudeMode>clampToGround</altitudeMode><coordinates>8.929903,44.4086532,0</coordinates></Point></Placemark><Placemark id="ChIJA0FJEET_sUAR20idpX1pYOQ" search_term="Bandit Specialty Coffee Strada George Vraca 7, 010146 Bucharest, Romania"><name>Bandit Specialty Coffee</name><description>https://maps.google.com/?cid=16456269026782169307
            
            Strada George Vraca 7, București 010146, Romania</description><styleUrl>#icon-1534-0288D1</styleUrl><Point><extrude>0</extrude><altitudeMode>clampToGround</altitudeMode><coordinates>26.0951029,44.4367459,0</coordinates></Point></Placemark><Placemark search_term="Kaffeekirsche Roastery Tempelhofer Damm 160, 12099 Berlin, Germany" id="ChIJe2Xwx7VPqEcRLrIronIqg3o"><name>Kaffeekirsche Roastery Tempelhofer Damm</name><description>https://maps.google.com/?cid=8827946366411715118
            
            Tempelhofer Damm 160, 12099 Berlin, Germany</description><styleUrl>#icon-1534-0288D1</styleUrl><Point><extrude>0</extrude><altitudeMode>clampToGround</altitudeMode><coordinates>13.3852617,52.4637207,0</coordinates></Point></Placemark><Placemark id="ChIJ92ijV-TVgUcRrUb9HQCXg2w" search_term="Ortika - coffee &amp;amp;amp;amp;amp;amp; food Via Giovanni Battista Spagnoli, 20, 46100 Mantova, Italy"><name>Ortika coffee &amp; food</name><description>https://maps.google.com/?cid=7819259404804245165
            
            Via Giovanni Battista Spagnoli, 20, 46100 Mantova MN, Italy</description><styleUrl>#icon-1534-0288D1</styleUrl><Point><extrude>0</extrude><altitudeMode>clampToGround</altitudeMode><coordinates>10.7942399,45.1576543,0</coordinates></Point></Placemark><Placemark id="ChIJP1qXSa0LkEcRzN4gdEbBGfk" search_term="Café Leonhardstreppe Weinbergstrasse 25, 8001 Zurich, Switzerland"><name>Cafe Takeaway Leonhardstreppe</name><description>https://maps.google.com/?cid=17949590298202005196
            
            Weinbergstrasse 25, 8001 Zürich, Switzerland</description><styleUrl>#icon-1534-0288D1</styleUrl><Point><extrude>0</extrude><altitudeMode>clampToGround</altitudeMode><coordinates>8.5438862,47.3788743,0</coordinates></Point></Placemark><Placemark search_term="Paisana Centro Comercial Centro Plaza, Local 23, Nueva Andalucía, 29660 Marbella, Spain" id="ChIJkw-avvIpcw0RZcxbza1CeJc"><name>Paisana</name><description>https://maps.google.com/?cid=10914547011174517861
            
            Centro Comercial Centro Plaza, Local 23, Nueva Andalucía, 29660 Marbella, Málaga, Spain</description><styleUrl>#icon-1534-0288D1</styleUrl><Point><extrude>0</extrude><altitudeMode>clampToGround</altitudeMode><coordinates>-4.9595704,36.493355,0</coordinates></Point></Placemark><Placemark search_term="Caffe Diem Pražská 59/31, 301 00 Pilsen, Czech Republic" id="ChIJ95FDFfrxCkcRsV8PlziD-MU"><name>Caffe Diem</name><description>https://maps.google.com/?cid=14265296098771820465
            
            Pražská 59/31, 301 00 Plzeň 3-Východní Předměstí, Czechia</description><styleUrl>#icon-1534-0288D1</styleUrl><Point><extrude>0</extrude><altitudeMode>clampToGround</altitudeMode><coordinates>13.3816744,49.7467309,0</coordinates></Point></Placemark><Placemark id="ChIJdzzVsleVC0cRzXoZNhto7h4" search_term="The Miners Charles Bridge Lázeňská 282/19, 118 00 Prague, Czech Republic"><name>The Miners Coffee Charles Bridge</name><description>https://maps.google.com/?cid=2228833331676019405
            
            Lázeňská 282/19, Malá Strana, 118 00 Praha-Praha 1, Czechia</description><styleUrl>#icon-1534-0288D1</styleUrl><Point><extrude>0</extrude><altitudeMode>clampToGround</altitudeMode><coordinates>14.4060011,50.0871933,0</coordinates></Point></Placemark><Placemark id="ChIJS_L2gUyFqkAR275f8AibL4E" search_term="Urban Embassy Specialty Coffee ul. &amp;quot;Professor Fridtjof Nansen&amp;quot; 19, 1142 Sofia, Bulgaria"><name>Urban Embassy Specialty Coffee</name><description>https://maps.google.com/?cid=9308829417492954843
            
            Old City Center, ul. &quot;Fridtjof Nansen&quot; 19, 1142 Sofia, Bulgaria</description><styleUrl>#icon-1534-0288D1</styleUrl><Point><extrude>0</extrude><altitudeMode>clampToGround</altitudeMode><coordinates>23.321633199999997,42.6870251,0</coordinates></Point></Placemark><Placemark id="ChIJyeeQw4rHh0gRJuD5cDjFWLw" search_term="Twelve Triangles 90 Brunswick Street, EH7 5HU Edinburgh, United Kingdom"><name>Twelve Triangles</name><description>https://maps.google.com/?cid=13571814323285254182
            
            90 Brunswick St, Edinburgh EH7 5HU, UK</description><styleUrl>#icon-1534-0288D1</styleUrl><Point><extrude>0</extrude><altitudeMode>clampToGround</altitudeMode><coordinates>-3.1809829,55.9606895,0</coordinates></Point></Placemark><Placemark id="ChIJFZY54tVZIkcRc77t2Zl4c0w" search_term="chrupkobistro lublin"><name>CHRUPKO</name><description>https://maps.google.com/?cid=5508879371385814643
            
            Koralowa 21, 20-583 Lublin, Poland</description><styleUrl>#icon-1534-0288D1</styleUrl><Point><extrude>0</extrude><altitudeMode>clampToGround</altitudeMode><coordinates>22.485240599999997,51.223492799999995,0</coordinates></Point></Placemark><Placemark id="ChIJF8PsNhRdNRMRq7gZKWgJR4k" search_term="kakantun split"><name>KaKantun - Specialty coffee and Gin</name><description>https://maps.google.com/?cid=9891885449513384107
            
            Ul. Dujma Vušković, 21000, Split, Croatia</description><styleUrl>#icon-1534-0288D1</styleUrl><Point><extrude>0</extrude><altitudeMode>clampToGround</altitudeMode><coordinates>16.4402099,43.5090765,0</coordinates></Point></Placemark><Placemark search_term="Dona Mira R. do Duque de Saldanha 431, 4300-466 Porto, Portugal" id="ChIJY2ow045lJA0R7h2fMvDgiR4"><name>Dona Mira - Café, Bar e Cultura</name><description>https://maps.google.com/?cid=2200537215193259502
            
            R. do Duque de Saldanha 431, 4300-466 Porto, Portugal</description><styleUrl>#icon-1534-0288D1</styleUrl><Point><extrude>0</extrude><altitudeMode>clampToGround</altitudeMode><coordinates>-8.5974149,41.145482,0</coordinates></Point></Placemark><Placemark search_term="Slow Hands Cafe Sedelvägen 35, 129 32 Stockholm, Sweden" id="ChIJa_tGKBh3X0YRk2vGqamxNp8"><name>Slow Hands Café</name><description>https://maps.google.com/?cid=11472552443028859795
            
            Sedelvägen 35, 129 32 Hägersten, Sweden</description><styleUrl>#icon-1534-0288D1</styleUrl><Point><extrude>0</extrude><altitudeMode>clampToGround</altitudeMode><coordinates>17.9797418,59.2952811,0</coordinates></Point></Placemark><Placemark id="ChIJE-KdrCMZOUcRz-9K_gf_k8E" search_term="Riverside Yevhena Fentsyka Square, 13, 88000 Uzhorod, Ukraine"><name>Riverside. Coffee roastery and brew bar</name><description>https://maps.google.com/?cid=13948772880692735951
            
            Yevhena Fentsyka Square, 13, Uzhhorod, Zakarpats&apos;ka oblast, Ukraine, 88000</description><styleUrl>#icon-1534-0288D1</styleUrl><Point><extrude>0</extrude><altitudeMode>clampToGround</altitudeMode><coordinates>22.2990516,48.622144299999995,0</coordinates></Point></Placemark><Placemark search_term="Moka Coffeeshop Farská 20, 949 01 Nitra, Slovakia" id="ChIJkQD4lBc_a0cRAoMOCFF-l0U"><name>Moka Coffee shop</name><description>https://maps.google.com/?cid=5014615596592956162
            
            Farská 20, 949 01 Nitra, Slovakia</description><styleUrl>#icon-1534-0288D1</styleUrl><Point><extrude>0</extrude><altitudeMode>clampToGround</altitudeMode><coordinates>18.0852771,48.3127599,0</coordinates></Point></Placemark><Placemark search_term="Georges espressobar Londenstraat 27, 2000 Antwerp, Belgium" id="ChIJ_SnUv1H2w0cR9XQ-2U6FFFU"><name>Georges espressobar</name><description>https://maps.google.com/?cid=6130671566456780021
            
            Londenstraat 27, 2000 Antwerpen, Belgium</description><styleUrl>#icon-1534-0288D1</styleUrl><Point><extrude>0</extrude><altitudeMode>clampToGround</altitudeMode><coordinates>4.4108236,51.2311657,0</coordinates></Point></Placemark><Placemark search_term="Večerka Pekařská 9, 602 00 Brno, Czech Republic" id="ChIJXc_YrKuVEkcR3qwGvLjIJv8"><name>Večerka Brno</name><description>https://maps.google.com/?cid=18385603224540720350
            
            Pekařská 9, 602 00 Brno-střed, Czechia</description><styleUrl>#icon-1534-0288D1</styleUrl><Point><extrude>0</extrude><altitudeMode>clampToGround</altitudeMode><coordinates>16.6037337,49.1921766,0</coordinates></Point></Placemark><Placemark id="ChIJT7BjJW5_CUcRWwqm-mnZoxs" search_term="Zoban espresso bar Lidická 53/3, 41201 Litoměřice, Czech Republic"><name>Zoban pražírna Litoměřice</name><description>https://maps.google.com/?cid=1991674509427870299
            
            Lidická 53/3, 412 01 Litoměřice-Litoměřice 1, Czechia</description><styleUrl>#icon-1534-0288D1</styleUrl><Point><extrude>0</extrude><altitudeMode>clampToGround</altitudeMode><coordinates>14.129944,50.535005,0</coordinates></Point></Placemark><Placemark id="ChIJx_mWxU4pQg0RUqj3BDWp0J0" search_term="OSOM Specialty Coffee Calle de Sta. Teresa, 2, 28004 Madrid, Spain"><name>Osom Coffee Atelier (Café De Especialidad Madrid)</name><description>https://maps.google.com/?cid=11371775104292202578
            
            Calle de Sta. Teresa, 2, Bajo-Local 4, Centro, 28004 Madrid, Spain</description><styleUrl>#icon-1534-0288D1</styleUrl><Point><extrude>0</extrude><altitudeMode>clampToGround</altitudeMode><coordinates>-3.6965183,40.426232899999995,0</coordinates></Point></Placemark><Placemark id="ChIJZTMH4owJxkcReXGn3msj0nU" search_term="Scandinavian Embassy Sarphatipark 34II, 1072 Amsterdam, Netherlands"><name>Scandinavian Embassy.</name><description>https://maps.google.com/?cid=8489887193750794617
            
            Sarphatipark 34, 1072 PB Amsterdam, Netherlands</description><styleUrl>#icon-1534-0288D1</styleUrl><Point><extrude>0</extrude><altitudeMode>clampToGround</altitudeMode><coordinates>4.8942191,52.353456099999995,0</coordinates></Point></Placemark><Placemark id="ChIJWWDAuCoNREAR76ry__TdU-I" search_term="BNKR 26 Simon Janashia St Tbilisi, Georgia"><name>BNKR specialty coffee roasters</name><description>https://maps.google.com/?cid=16308622719974550255
            
            26 Simon Janashia St, T&apos;bilisi, Georgia</description><styleUrl>#icon-1534-0288D1</styleUrl><Point><extrude>0</extrude><altitudeMode>clampToGround</altitudeMode><coordinates>44.7814234,41.7056732,0</coordinates></Point></Placemark><Placemark id="ChIJGVpyQ3gqw0cRRrfIBtGZmPA" search_term="Tamper Espresso Bar 10 rue des Vieux Murs, 59800 Lille, France"><name>Tamper! Espresso Bar</name><description>https://maps.google.com/?cid=17336775888603756358
            
            10 Rue des Vieux Murs, 59800 Lille, France</description><styleUrl>#icon-1534-0288D1</styleUrl><Point><extrude>0</extrude><altitudeMode>clampToGround</altitudeMode><coordinates>3.0612315999999997,50.6408424,0</coordinates></Point></Placemark><Placemark id="ChIJJRxLutlr2EcRbwCEiJsgtUQ" search_term="Village Green Coffee Shop 105 The Causeway, CB25 0DU Burwell, United Kingdom"><name>Village Green Coffee Shop</name><description>https://maps.google.com/?cid=4950899217746100335
            
            105 The Causeway, Burwell, Cambridge CB25 0DU, UK</description><styleUrl>#icon-1534-0288D1</styleUrl><Point><extrude>0</extrude><altitudeMode>clampToGround</altitudeMode><coordinates>0.3247954,52.2791675,0</coordinates></Point></Placemark><Placemark search_term="Džungle Kravařova 5, 796 01 Prostějov, Czech Republic" id="ChIJBWj4fZZXEkcRSz_nVD6Pvi0"><name>Džungle</name><description>https://maps.google.com/?cid=3296229475156967243
            
            Kravařova, 796 01 Prostějov-Prostějov 1, Czechia</description><styleUrl>#icon-1534-0288D1</styleUrl><Point><extrude>0</extrude><altitudeMode>clampToGround</altitudeMode><coordinates>17.1083545,49.4725097,0</coordinates></Point></Placemark><Placemark id="ChIJZ3UIyZHbQUcRPhgVt0sP-lw" search_term="Tamp &amp;amp;amp;amp;amp;amp; Pull Nordic Light Véső utca 7, 1133 Budapest, Hungary"><name>Tamp &amp; Pull Espresso Bar Nordic Light</name><description>https://maps.google.com/?cid=6699684213535610942
            
            Budapest, Véső u. 7, 1133 Hungary</description><styleUrl>#icon-1534-0288D1</styleUrl><Point><extrude>0</extrude><altitudeMode>clampToGround</altitudeMode><coordinates>19.063456199999997,47.529116599999995,0</coordinates></Point></Placemark><Placemark id="ChIJnSDYRb6TVxMRCvdGe6gL8f4" search_term="Flow microroastery Kotouniou 4 &amp;amp;, Paster, Veria, 591 00 Veria, Greece"><name>φλόου microroastery</name><description>https://maps.google.com/?cid=18370477173271623434
            
            Kotouniou 4 &amp;, Paster, Veria 591 00, Greece</description><styleUrl>#icon-1534-0288D1</styleUrl><Point><extrude>0</extrude><altitudeMode>clampToGround</altitudeMode><coordinates>22.207103,40.52410520000001,0</coordinates></Point></Placemark><Placemark id="ChIJMbWCRusNZ0gRlND45_V1244" search_term="The Little Cactus 1a Prussia Street, D07 CH73 Dublin, Ireland"><name>The Little Cactus - Speciality Coffee &amp; Plants</name><description>https://maps.google.com/?cid=10293951072304681108
            
            1a Prussia St, Stoneybatter, Dublin, D07 CH73, Ireland</description><styleUrl>#icon-1534-0288D1</styleUrl><Point><extrude>0</extrude><altitudeMode>clampToGround</altitudeMode><coordinates>-6.2855669,53.353694399999995,0</coordinates></Point></Placemark><Placemark id="ChIJ97z6DRyIREcRvbIB_cW8FEE" search_term="Kék Elefánt Kávézó Klauzál tér 5, 6720 Szeged, Hungary"><name>Kék Elefánt Kávézó</name><description>https://maps.google.com/?cid=4689580670538855101
            
            Szeged, Klauzál tér 5, 6720 Hungary</description><styleUrl>#icon-1534-0288D1</styleUrl><Point><extrude>0</extrude><altitudeMode>clampToGround</altitudeMode><coordinates>20.1469748,46.2519272,0</coordinates></Point></Placemark><Placemark search_term="La Pelle Cafe 29 rue Notre Dame Bordeaux, 33000 Bordeaux, France" id="ChIJ54txO3goVQ0Rg5kM8IXFXJk"><name>La Pelle Café - Torréfacteur de cafés de spécialité | Coffee-bar</name><description>https://maps.google.com/?cid=11050924764709034371
            
            29 Rue Notre Dame, 33000 Bordeaux, France</description><styleUrl>#icon-1534-0288D1</styleUrl><Point><extrude>0</extrude><altitudeMode>clampToGround</altitudeMode><coordinates>-0.572122,44.850583,0</coordinates></Point></Placemark><Placemark search_term="Odd Kin 45 Whiteladies Road, BS8 2LS Bristol, United Kingdom" id="ChIJ_yZmOgKNcUgRpRlBzpH2vXw"><name>OddShop</name><description>https://maps.google.com/?cid=8988611537392441765
            
            45 Whiteladies Rd, Redland, Bristol BS8 2LS, UK</description><styleUrl>#icon-1534-0288D1</styleUrl><Point><extrude>0</extrude><altitudeMode>clampToGround</altitudeMode><coordinates>-2.6083076999999997,51.461597399999995,0</coordinates></Point></Placemark><Placemark id="ChIJq88LaXndFEcROOz1K4Hdm0w" search_term="Bloom bistro Andreja Hlinku 2993/13A, 971 01 Prievidza, Slovakia"><name>Bloom Bistro</name><description>https://maps.google.com/?cid=5520249315130731576
            
            Andreja Hlinku 2993/13A, 971 01 Prievidza, Slovakia</description><styleUrl>#icon-1534-0288D1</styleUrl><Point><extrude>0</extrude><altitudeMode>clampToGround</altitudeMode><coordinates>18.619419,48.7730626,0</coordinates></Point></Placemark><Placemark id="ChIJ6YxdsPTMHkcRNOTuW6W8mLU" search_term="Relax Cafe Bar Złota 8a, 00-019 Warsaw, Poland"><name>relax cafe bar centrum</name><description>https://maps.google.com/?cid=13085416135722984500
            
            Złota 8a, 00-019 Warszawa, Poland</description><styleUrl>#icon-1534-0288D1</styleUrl><Point><extrude>0</extrude><altitudeMode>clampToGround</altitudeMode><coordinates>21.010768799999997,52.2332007,0</coordinates></Point></Placemark><Placemark search_term="The Barn Rosenthaler Platz Weinbergsweg 1, 10119 Berlin, Germany" id="ChIJFaVsJX5RqEcRJ9bTmmH0MqI"><name>THE BARN Coffee Roasters Berlin</name><description>https://maps.google.com/?cid=11687672683026437671
            
            Weinbergsweg 1, 10119 Berlin, Germany</description><styleUrl>#icon-1534-0288D1</styleUrl><Point><extrude>0</extrude><altitudeMode>clampToGround</altitudeMode><coordinates>13.401773,52.5300412,0</coordinates></Point></Placemark><Placemark search_term="toutvabien prague" id="ChIJFbknKfSTC0cRKYGFVZozIJQ"><name>Café Tout va bien</name><description>https://maps.google.com/?cid=10673587854820868393
            
            Slezská 482/125, Vinohrady, 130 00 Praha-Praha 3, Czechia</description><styleUrl>#icon-1534-0288D1</styleUrl><Point><extrude>0</extrude><altitudeMode>clampToGround</altitudeMode><coordinates>14.4653436,50.0771197,0</coordinates></Point></Placemark><Placemark search_term="R&amp;amp;B Café Roasters Slovenska cesta 47, 1000 Ljubljana, Slovenia" id="ChIJZXnqbJ4yZUcRhQIVaIwIVLI"><name>R &amp; B Cafe Roasters</name><description>https://maps.google.com/?cid=12849905035929518725
            
            Slovenska cesta 47, 1000 Ljubljana, Slovenia</description><styleUrl>#icon-1534-0288D1</styleUrl><Point><extrude>0</extrude><altitudeMode>clampToGround</altitudeMode><coordinates>14.5047547,46.0552719,0</coordinates></Point></Placemark><Placemark search_term="Rosslyn Coffee London Wall 118 London Wall, EC2Y 5JA London, United Kingdom" id="ChIJ1fRYjo4ddkgRRZq7lphil6E"><name>Rosslyn Coffee London Wall</name><description>https://maps.google.com/?cid=11643883769093134917
            
            118 London Wall, London EC2Y 5JA, UK</description><styleUrl>#icon-1534-0288D1</styleUrl><Point><extrude>0</extrude><altitudeMode>clampToGround</altitudeMode><coordinates>-0.0890369,51.51768990000001,0</coordinates></Point></Placemark><Placemark id="ChIJ64FkOq40-UcRW8A-JEhEJ8E" search_term="La Fabrique du Café Place d&apos;Aine 7, 87000 Limoges, France"><name>La Fabrique du Café</name><description>https://maps.google.com/?cid=13918168250048233563
            
            7 Pl. d&apos;Aine, 87000 Limoges, France</description><styleUrl>#icon-1534-0288D1</styleUrl><Point><extrude>0</extrude><altitudeMode>clampToGround</altitudeMode><coordinates>1.2546857,45.8297189,0</coordinates></Point></Placemark><Placemark search_term="Etual Café C. de la Alameda, 8, Centro, 28014 Madrid, Spain" id="ChIJC16zGkUnQg0ReIcE-lvevkQ"><name>Etual Café</name><description>https://maps.google.com/?cid=4953641126772115320
            
            C. de la Alameda, 8, Centro, 28014 Madrid, Spain</description><styleUrl>#icon-1534-0288D1</styleUrl><Point><extrude>0</extrude><altitudeMode>clampToGround</altitudeMode><coordinates>-3.6939767999999993,40.4121117,0</coordinates></Point></Placemark><Placemark id="ChIJfTVXUaeJbEcRMAriUmNBRn0" search_term="Pekáreň Háj Gessayova 9, 851 03 Bratislava, Slovakia"><name>Pekáreň Háj</name><description>https://maps.google.com/?cid=9026974397958851120
            
            Gessayova 9, 851 03 Bratislava-Petržalka, Slovakia</description><styleUrl>#icon-1534-0288D1</styleUrl><Point><extrude>0</extrude><altitudeMode>clampToGround</altitudeMode><coordinates>17.1147505,48.1192903,0</coordinates></Point></Placemark><Placemark id="ChIJt0sXaTWVC0cRk6G_lViRE-s" search_term="EMA espresso bar Thámova, Křižíkova 289/13, 18600 Prague, Czech Republic"><name>EMA espresso bar</name><description>https://maps.google.com/?cid=16939042433126080915
            
            Palác Karlín Vstup z ulice Křižíkova, Thámova 289 /13, 186 00 Praha 8-Karlín, Czechia</description><styleUrl>#icon-1534-0288D1</styleUrl><Point><extrude>0</extrude><altitudeMode>clampToGround</altitudeMode><coordinates>14.4515521,50.0924415,0</coordinates></Point></Placemark><Placemark search_term="Yellow Tile Coffee Project Humboldtstraße 67, 90459 Nuremberg, Germany" id="ChIJSf4mF5xXn0cRwqxULq0YR5A"><name>Yellow Tile Coffee Project</name><description>https://maps.google.com/?cid=10396305396893789378
            
            Humboldtstraße 67, 90459 Nürnberg, Germany</description><styleUrl>#icon-1534-0288D1</styleUrl><Point><extrude>0</extrude><altitudeMode>clampToGround</altitudeMode><coordinates>11.0780232,49.4386411,0</coordinates></Point></Placemark><Placemark search_term="Kavárna co hledá jméno Stroupežnického 493/10, 15000 Prague, Czech Republic" id="ChIJ6WgyBFeUC0cRSOzgMQRiu30"><name>Kavárna co hledá jméno</name><description>https://maps.google.com/?cid=9059942845542100040
            
            Stroupežnického 493/10, Smíchov, 150 00 Praha-Praha 5, Czechia</description><styleUrl>#icon-1534-0288D1</styleUrl><Point><extrude>0</extrude><altitudeMode>clampToGround</altitudeMode><coordinates>14.403760499999995,50.069663899999995,0</coordinates></Point></Placemark><Placemark search_term="Coffee Under Pressure | speciality coffee &amp;amp;amp;amp;amp;amp; tea 7 Blagrave Street, RG1 1PJ Reading, United Kingdom" id="ChIJ9SWLg-ObdkgReEwzO2nK_XM"><name>Coffee Under Pressure | speciality coffee &amp; tea (7 Blagrave street)</name><description>https://maps.google.com/?cid=8358059036783103096
            
            7 Blagrave St, Reading RG1 1PJ, UK</description><styleUrl>#icon-1534-0288D1</styleUrl><Point><extrude>0</extrude><altitudeMode>clampToGround</altitudeMode><coordinates>-0.9704756,51.457046899999995,0</coordinates></Point></Placemark><Placemark search_term="Partisan Café Artisanal 36 R. de Turbigo, 75003 Paris, France" id="ChIJoXjzXBpu5kcRxcAyAUf7Oy8"><name>Partisan Café Artisanal</name><description>https://maps.google.com/?cid=3403590225789894853
            
            36 R. de Turbigo, 75003 Paris, France</description><styleUrl>#icon-1534-0288D1</styleUrl><Point><extrude>0</extrude><altitudeMode>clampToGround</altitudeMode><coordinates>2.353093,48.864681,0</coordinates></Point></Placemark><Placemark search_term="KŌYŌ Urbanização Quinta da Barrada 5, 8670-001 Aljezur, Portugal" id="ChIJHTu1YzYVGw0RWAIBmJFmQ-8"><name>KOYO Speciality Coffees</name><description>https://maps.google.com/?cid=17240736574010884696
            
            Urbanização Quinta da Barrada 5, 8670-001 Aljezur, Portugal</description><styleUrl>#icon-1534-0288D1</styleUrl><Point><extrude>0</extrude><altitudeMode>clampToGround</altitudeMode><coordinates>-8.7977185,37.317934699999995,0</coordinates></Point></Placemark><Placemark id="ChIJoTVpTtQpQg0RbR9q94k_mMI" search_term="La Deseada Specialty Coffee Calle de José Abascal, 53, Chamberí, 28003 Madrid, Spain"><name>La Deseada Specialty Coffee</name><description>https://maps.google.com/?cid=14022027301612035949
            
            Calle de José Abascal, 53, Chamberí, 28003 Madrid, Spain</description><styleUrl>#icon-1534-0288D1</styleUrl><Point><extrude>0</extrude><altitudeMode>clampToGround</altitudeMode><coordinates>-3.6939322,40.4383059,0</coordinates></Point></Placemark><Placemark search_term="On y va Les Corts Carrer de Cabestany, 15, 08014 Barcelona, Spain" id="ChIJycPH3SqZpBIRYVcAtJpkZxo"><name>Onyva Coffee - Les Corts</name><description>https://maps.google.com/?cid=1902599983194986337
            
            Carrer de Cabestany, 15, Les Corts, 08014 Barcelona, Spain</description><styleUrl>#icon-1534-0288D1</styleUrl><Point><extrude>0</extrude><altitudeMode>clampToGround</altitudeMode><coordinates>2.1324612,41.386132499999995,0</coordinates></Point></Placemark><Placemark id="ChIJj6VEHSndQUcRA99hn1yaKvk" search_term="DAMn Good Place Napkelte utca 2, 1117 Budapest, Hungary"><name>The DAM_n Good Place</name><description>https://maps.google.com/?cid=17954332587067563779
            
            Budapest, Napkelte utca 2, 1117 Hungary</description><styleUrl>#icon-1534-0288D1</styleUrl><Point><extrude>0</extrude><altitudeMode>clampToGround</altitudeMode><coordinates>19.058568299999997,47.466816699999995,0</coordinates></Point></Placemark><Placemark search_term="Green Wall Coffee &amp;amp;amp;amp;amp;amp; Coworking Sophienstraße 27, 10317 Berlin, Germany" id="ChIJizj7CQxPqEcRGBIGBonbcD4"><name>Green Wall Coffee &amp; Coworking</name><description>https://maps.google.com/?cid=4499337409301189144
            
            Sophienstraße 27, 10317 Berlin, Germany</description><styleUrl>#icon-1534-0288D1</styleUrl><Point><extrude>0</extrude><altitudeMode>clampToGround</altitudeMode><coordinates>13.4954644,52.5061582,0</coordinates></Point></Placemark><Placemark search_term="Mala Radionica Kafe Cirpanova 11, 21101 Novi Sad, Serbia" id="ChIJdzKKoMERW0cR5ZT6ezN06uY"><name>Mala Radionica Kafe</name><description>https://maps.google.com/?cid=16639239537745892581
            
            Ćirpanova 11, Novi Sad, Serbia</description><styleUrl>#icon-1534-0288D1</styleUrl><Point><extrude>0</extrude><altitudeMode>clampToGround</altitudeMode><coordinates>19.8346126,45.2527073,0</coordinates></Point></Placemark><Placemark search_term="Boot Koffie Laanstraat 49, 3743 BB Baarn, Netherlands" id="ChIJi9L5LDhAxkcRtb1GAHOsW6M"><name>Boot Koffie</name><description>https://maps.google.com/?cid=11771191660988775861
            
            Laanstraat 49, 3743 BB Baarn, Netherlands</description><styleUrl>#icon-1534-0288D1</styleUrl><Point><extrude>0</extrude><altitudeMode>clampToGround</altitudeMode><coordinates>5.2885588,52.2116121,0</coordinates></Point></Placemark><Placemark id="ChIJZ3UIyZHbQUcRPhgVt0sP-lw" search_term="Tamp &amp; Pull Nordic Light Véső utca 7, 1133 Budapest, Hungary"><name>Tamp &amp; Pull Espresso Bar Nordic Light</name><description>https://maps.google.com/?cid=6699684213535610942
            
            Budapest, Véső u. 7, 1133 Hungary</description><styleUrl>#icon-1534-0288D1</styleUrl><Point><extrude>0</extrude><altitudeMode>clampToGround</altitudeMode><coordinates>19.063456199999997,47.529116599999995,0</coordinates></Point></Placemark><Placemark id="ChIJi4P5gf7N4BQRV19JRLjZOZ0" search_term="Bike &amp; Bean Coffee Station Georgiou A, 18B Germasogias, 4047 Limassol, Cyprus"><name>Bike &amp; Bean Coffee Station</name><description>https://maps.google.com/?cid=11329325723070062423
            
            Georgiou &apos;A 18B, Germasogeia 4047, Cyprus</description><styleUrl>#icon-1534-0288D1</styleUrl><Point><extrude>0</extrude><altitudeMode>clampToGround</altitudeMode><coordinates>33.0847664,34.6940399,0</coordinates></Point></Placemark><Placemark search_term="Lulus Coffee &amp; Co. Grosskölnstraße 73, 52062 Aachen, Germany" id="ChIJe09742SZwEcRrZO39rq3jto"><name>Lulus Coffee &amp; Co</name><description>https://maps.google.com/?cid=15748726960592229293
            
            Grosskölnstraße 73, 52062 Aachen, Germany</description><styleUrl>#icon-1534-0288D1</styleUrl><Point><extrude>0</extrude><altitudeMode>clampToGround</altitudeMode><coordinates>6.0877327999999995,50.7778265,0</coordinates></Point></Placemark><Placemark id="ChIJdwajgBQKkEcRoSKs8oY13Pc" search_term="mame zurich"><name>MAME Josef</name><description>https://maps.google.com/?cid=17860209075957801633
            
            Josefstrasse 160, 8005 Zürich, Switzerland</description><styleUrl>#icon-1534-0288D1</styleUrl><Point><extrude>0</extrude><altitudeMode>clampToGround</altitudeMode><coordinates>8.5273789,47.384963899999995,0</coordinates></Point></Placemark><Placemark id="ChIJiYWri6rLxUcRUrC1dXo-gNA" search_term="33rd street coffee Kleiweg 109A, 3051 GL Rotterdam, Netherlands"><name>33rd Street Coffee</name><description>https://maps.google.com/?cid=15024077052589748306
            
            Kleiweg 109A, 3051 GL Rotterdam, Netherlands</description><styleUrl>#icon-1534-0288D1</styleUrl><Point><extrude>0</extrude><altitudeMode>clampToGround</altitudeMode><coordinates>4.4787891,51.9454364,0</coordinates></Point></Placemark><Placemark id="ChIJJbHJeCht5kcR8LGr5NUrEBw" search_term="Kott Cafe 19 Rue Ternaux, 75011 Paris, France"><name>Kott Café</name><description>https://maps.google.com/?cid=2022164430353838576
            
            19 Rue Ternaux, 75011 Paris, France</description><styleUrl>#icon-1534-0288D1</styleUrl><Point><extrude>0</extrude><altitudeMode>clampToGround</altitudeMode><coordinates>2.3735002,48.8645794,0</coordinates></Point></Placemark><Placemark id="ChIJbV3CD1PExEURudGLn2vL_dw" search_term="Kaffebønna Stortorget 3, 9008 Tromsø, Norway"><name>Kaffebønna Stortorget</name><description>https://maps.google.com/?cid=15924107520550621625
            
            Stortorget 3, 9008 Tromsø, Norway</description><styleUrl>#icon-1534-0288D1</styleUrl><Point><extrude>0</extrude><altitudeMode>clampToGround</altitudeMode><coordinates>18.9592639,69.6515167,0</coordinates></Point></Placemark><Placemark search_term="Moje Druhá Dobrovského 3085, 544 01 Dvůr Králové nad Labem, Czech Republic" id="ChIJZaXuGWWFDkcRWFaNU1q7hCA"><name>Moje druhá</name><description>https://maps.google.com/?cid=2343203702762722904
            
            Dobrovského 3085, 544 01 Dvůr Králové nad Labem-Dvůr Králové nad Labem 1, Czechia</description><styleUrl>#icon-1534-0288D1</styleUrl><Point><extrude>0</extrude><altitudeMode>clampToGround</altitudeMode><coordinates>15.815489,50.4277774,0</coordinates></Point></Placemark><Placemark id="ChIJYzxZVJKIJRMRN0fi2o_E45w" search_term="cafferinaldi rome"><name>Caffè Rinaldi - Torrefazione artigianale</name><description>https://maps.google.com/?cid=11305095611761706807
            
            Via Lucrezia Romana, 40/E, 00043 Ciampino RM, Italy</description><styleUrl>#icon-1534-0288D1</styleUrl><Point><extrude>0</extrude><altitudeMode>clampToGround</altitudeMode><coordinates>12.6036148,41.8066096,0</coordinates></Point></Placemark><Placemark id="ChIJuwmBKd2JbEcRWCQj2rGAVls" search_term="coffeeme bratislava"><name>Coffee me - Sky Park</name><description>https://maps.google.com/?cid=6581589406805861464
            
            Bottova 2622/2, 811 09 Bratislava-Staré Mesto, Slovakia</description><styleUrl>#icon-1534-0288D1</styleUrl><Point><extrude>0</extrude><altitudeMode>clampToGround</altitudeMode><coordinates>17.1259682,48.1433,0</coordinates></Point></Placemark><Placemark id="ChIJxbvtFdRtQUYRfpR2UhLV46s" search_term="Mocca Oslo Niels Juels gate 70, 0259 Oslo, Norway"><name>Mocca Oslo</name><description>https://maps.google.com/?cid=12385977674868626558
            
            Niels Juels gate 70, 0259 Oslo, Norway</description><styleUrl>#icon-1534-0288D1</styleUrl><Point><extrude>0</extrude><altitudeMode>clampToGround</altitudeMode><coordinates>10.718625,59.9194325,0</coordinates></Point></Placemark><Placemark id="ChIJ19GXj-BzyEcR0S_TxhSEFpk" search_term="Espressobar Roeth Kruisstraat 3, 7941 AM Meppel, Netherlands"><name>Roeth Coffee</name><description>https://maps.google.com/?cid=11031149562060550097
            
            Kruisstraat 3, 7941 AM Meppel, Netherlands</description><styleUrl>#icon-1534-0288D1</styleUrl><Point><extrude>0</extrude><altitudeMode>clampToGround</altitudeMode><coordinates>6.1905406,52.6987416,0</coordinates></Point></Placemark><Placemark search_term="Coutume Galeries Lafayette 40 Bd Haussmann, 75009 Paris, France" id="ChIJbQY5Y5Nv5kcRG-PEe4woGPg"><name>Coutume</name><description>https://maps.google.com/?cid=17877083304684217115
            
            Magasin Coupole, 40 Bd Haussmann 3ème Étage, 75009 Paris, France</description><styleUrl>#icon-1534-0288D1</styleUrl><Point><extrude>0</extrude><altitudeMode>clampToGround</altitudeMode><coordinates>2.3323004,48.8735392,0</coordinates></Point></Placemark><Placemark search_term="The Brick Coffee Factory Piotrkowska 63, 90-368 Lodz, Poland" id="ChIJX_z6WnDLG0cRw5pWJ6gfQLc"><name>The Brick</name><description>https://maps.google.com/?cid=13204588914525248195
            
            Piotrkowska 63, 90-368 Łódź, Poland</description><styleUrl>#icon-1534-0288D1</styleUrl><Point><extrude>0</extrude><altitudeMode>clampToGround</altitudeMode><coordinates>19.4562265,51.768804499999995,0</coordinates></Point></Placemark><Placemark search_term="ANNNA Carrer de l&amp;amp;amp;amp;amp;apos;Hospital, 21, 17220 Sant Feliu de Guíxols, Spain" id="ChIJ2wPik5UHuxIROkV6OyoYt4E"><name>ANNNA</name><description>https://maps.google.com/?cid=9346966121296315706
            
            Carrer de l&apos;Hospital, 21, 17220 Sant Feliu de Guíxols, Girona, Spain</description><styleUrl>#icon-1534-0288D1</styleUrl><Point><extrude>0</extrude><altitudeMode>clampToGround</altitudeMode><coordinates>3.0275588,41.7815581,0</coordinates></Point></Placemark><Placemark id="ChIJj-V2jaf4sUARdAyboL5J3Gk" search_term="Two Minutes Strada Constantin Aricescu 50A, București, 014192 Bucharest, Romania"><name>Two Minutes</name><description>https://maps.google.com/?cid=7628052951945907316
            
            Strada Constantin Aricescu 50A, București 014192, Romania</description><styleUrl>#icon-1534-0288D1</styleUrl><Point><extrude>0</extrude><altitudeMode>clampToGround</altitudeMode><coordinates>26.0993807,44.461498600000006,0</coordinates></Point></Placemark><Placemark search_term="arkmusicandcoffee whitstable" id="ChIJI03t4gEz2UcRQY_LiivWA8k"><name>Ark Music and Coffee</name><description>https://maps.google.com/?cid=14484656309054181185
            
            6 Tower Parade, Whitstable CT5 2BJ, UK</description><styleUrl>#icon-1534-0288D1</styleUrl><Point><extrude>0</extrude><altitudeMode>clampToGround</altitudeMode><coordinates>1.0318514,51.3633982,0</coordinates></Point></Placemark><Placemark search_term="The Winchester Orangery 11 The Square, SO23 9ES Winchester, United Kingdom" id="ChIJyxx1SPsNdEgRAvjsdCetxTM"><name>The Winchester Orangery</name><description>https://maps.google.com/?cid=3730578251323340802
            
            11 The Square, Winchester SO23 9ES, UK</description><styleUrl>#icon-1534-0288D1</styleUrl><Point><extrude>0</extrude><altitudeMode>clampToGround</altitudeMode><coordinates>-1.3152573,51.0622118,0</coordinates></Point></Placemark><Placemark id="ChIJMU2_UvLF1EARh5ol8iMTkyY" search_term="Right Coffee Bar Ivana Mykolaichuka St, 7А, 02152 Kyiv, Ukraine"><name>RIGHT coffee bar</name><description>https://maps.google.com/?cid=2779586440125061767
            
            Ivana Mykolaichuka St, 7А, Kyiv, Ukraine, 02152</description><styleUrl>#icon-1534-0288D1</styleUrl><Point><extrude>0</extrude><altitudeMode>clampToGround</altitudeMode><coordinates>30.5992522,50.4319376,0</coordinates></Point></Placemark><Placemark id="ChIJs93bdcAwz0cR3Wkl4iubXqE" search_term="Texel Branding Vismarkt 6, 1791 CD Den Burg, Netherlands"><name>Texelse Branding</name><description>https://maps.google.com/?cid=11627901900697201117
            
            Vismarkt 6, 1791 CD Den Burg, Netherlands</description><styleUrl>#icon-1534-0288D1</styleUrl><Point><extrude>0</extrude><altitudeMode>clampToGround</altitudeMode><coordinates>4.7976067,53.0543227,0</coordinates></Point></Placemark><Placemark id="ChIJj2aASuQpQg0RGdBLBivUgK8" search_term="East Crema Coffee Conde C. del Conde de Peñalver, 20, 28006 Madrid, Spain"><name>East Crema Coffee Conde (Specialty Coffee Madrid)</name><description>https://maps.google.com/?cid=12646341034910666777
            
            C. del Conde de Peñalver, 20, Salamanca, 28006 Madrid, Spain</description><styleUrl>#icon-1534-0288D1</styleUrl><Point><extrude>0</extrude><altitudeMode>clampToGround</altitudeMode><coordinates>-3.6753246,40.4271357,0</coordinates></Point></Placemark><Placemark search_term="Kaffee Alchemie Rudolfskai 38, 5020 Salzburg, Austria" id="ChIJ5wrI94mQdkcRhLTaW3tx0nc"><name>Kaffee-Alchemie</name><description>https://maps.google.com/?cid=8634088210258637956
            
            Rudolfskai 38, 5020 Salzburg, Austria</description><styleUrl>#icon-1534-0288D1</styleUrl><Point><extrude>0</extrude><altitudeMode>clampToGround</altitudeMode><coordinates>13.0494679,47.798956700000005,0</coordinates></Point></Placemark><Placemark search_term="Auer&amp;amp;amp;amp;amp;amp;Co Sihlquai 131, 8005 Zurich, Switzerland" id="ChIJ35iQfQ0KkEcRhZPm2nxaFM0"><name>Auer &amp; Co.</name><description>https://maps.google.com/?cid=14777535769604428677
            
            Sihlquai 131, 8005 Zürich, Switzerland</description><styleUrl>#icon-1534-0288D1</styleUrl><Point><extrude>0</extrude><altitudeMode>clampToGround</altitudeMode><coordinates>8.533674999999999,47.384833,0</coordinates></Point></Placemark><Placemark search_term="Orange - Finest Coffee Neusser Tor 17A, 40625 Dusseldorf, Germany" id="ChIJZRRe6rnPuEcRKoDViLASCnE"><name>Orange - Finest Coffee</name><description>https://maps.google.com/?cid=8145343425472200746
            
            Neusser Tor 17A, 40625 Düsseldorf, Germany</description><styleUrl>#icon-1534-0288D1</styleUrl><Point><extrude>0</extrude><altitudeMode>clampToGround</altitudeMode><coordinates>6.860496599999999,51.2370253,0</coordinates></Point></Placemark><Placemark id="ChIJ9ZwlSZdhYAwRUcO7ZVkPSmY" search_term="Land Food &amp;amp;amp;amp;amp;amp; Coffee Largo das Babosas 8, 9050-541 Funchal, Portugal"><name>Land Food &amp; Coffee</name><description>https://maps.google.com/?cid=7370720616778548049
            
            Largo das Babosas 8, 9050-541 Funchal, Portugal</description><styleUrl>#icon-1534-0288D1</styleUrl><Point><extrude>0</extrude><altitudeMode>clampToGround</altitudeMode><coordinates>-16.900391799999998,32.675512100000006,0</coordinates></Point></Placemark><Placemark id="ChIJy_kGwslhrkAReHf-jPNsvRk" search_term="Sapiens specialty coffee and brunch ul. &quot;Batak&quot; 3, 7000 Ruse, Bulgaria"><name>Sapiens Specialty Coffee and all day brunch</name><description>https://maps.google.com/?cid=1854758414844852088
            
            Ruse Center, ul. &quot;Batak&quot; 3, 7000 Ruse, Bulgaria</description><styleUrl>#icon-1534-0288D1</styleUrl><Point><extrude>0</extrude><altitudeMode>clampToGround</altitudeMode><coordinates>25.9484337,43.8499527,0</coordinates></Point></Placemark><Placemark search_term="OAS Sandgärdsgatan 12, 352 30 Växjö, Sweden" id="ChIJsZuxhZgjV0YRMIcvtzZOt9U"><name>OAS Växjö Cafe</name><description>https://maps.google.com/?cid=15399863447725246256
            
            Sandgärdsgatan 12b, 352 30 Växjö, Sweden</description><styleUrl>#icon-1534-0288D1</styleUrl><Point><extrude>0</extrude><altitudeMode>clampToGround</altitudeMode><coordinates>14.8064897,56.8781416,0</coordinates></Point></Placemark><Placemark id="ChIJyWnv52KNfEgRTqRGscqv5l4" search_term="Fold Coffee Unit 12, Beezon Road Trading Estate, LA9 6BW Kendal, United Kingdom"><name>Fold Coffee</name><description>https://maps.google.com/?cid=6838346369301128270
            
            Unit 12, Beezon Road Trading Estate, Kendal LA9 6BW, UK</description><styleUrl>#icon-1534-0288D1</styleUrl><Point><extrude>0</extrude><altitudeMode>clampToGround</altitudeMode><coordinates>-2.7425287,54.3328372,0</coordinates></Point></Placemark><Placemark id="ChIJpS_Rdy6hxkcRW0qmmREEw2o" search_term="Fortin Ridderstraat 6, 5211 KA &apos;s-Hertogenbosch, Netherlands"><name>Fortin | Home of Specialty Coffee</name><description>https://maps.google.com/?cid=7692997062117706331
            
            Ridderstraat 6, 5211 KA &apos;s-Hertogenbosch, Netherlands</description><styleUrl>#icon-1534-0288D1</styleUrl><Point><extrude>0</extrude><altitudeMode>clampToGround</altitudeMode><coordinates>5.303671899999999,51.6883296,0</coordinates></Point></Placemark><Placemark search_term="MABÓ ONE Strada Petru Rareș 12, 011101 Bucharest, Romania" id="ChIJyaR2ylQBskARlGmxnUtOwj4"><name>MABO ONE - Specialty Coffee Shop</name><description>https://maps.google.com/?cid=4522263062508562836
            
            Strada Petru Rareș 12, București 011101, Romania</description><styleUrl>#icon-1534-0288D1</styleUrl><Point><extrude>0</extrude><altitudeMode>clampToGround</altitudeMode><coordinates>26.0718233,44.450254,0</coordinates></Point></Placemark><Placemark id="ChIJxXGFawbyEUcRwvbXXay0lKY" search_term="ENNEA CAFÉ &amp;amp; LOCAL SHOP 25, nám. Svobody 832, 790 01 Jeseník, Czech Republic"><name>Ennea Caffe &amp; Shop</name><description>https://maps.google.com/?cid=12003417559251023554
            
            25, nám. Svobody 832, 790 01 Jeseník-Jeseník 1, Czechia</description><styleUrl>#icon-1534-0288D1</styleUrl><Point><extrude>0</extrude><altitudeMode>clampToGround</altitudeMode><coordinates>17.2049222,50.2268403,0</coordinates></Point></Placemark><Placemark id="ChIJMX0EJlOZoEcRUkyZoE0Gs8c" search_term="Lékárna by City Roasters T. G. Masaryka 941, 360 01 Karlovy Vary, Czech Republic"><name>Kavárna Lékárna by City Roasters</name><description>https://maps.google.com/?cid=14389852164855516242
            
            T. G. Masaryka 941/47, 360 01 Karlovy Vary-Karlovy Vary 1, Czechia</description><styleUrl>#icon-1534-0288D1</styleUrl><Point><extrude>0</extrude><altitudeMode>clampToGround</altitudeMode><coordinates>12.868103,50.2300505,0</coordinates></Point></Placemark><Placemark id="ChIJi1jAOhJdRUcR5yrh-u66MV0" search_term="Narativ Specialty Coffee Splaiul Nicolae Titulescu 7, 300160 Timisoara, Romania"><name>Narativ Speciality Coffee</name><description>https://maps.google.com/?cid=6715354054960163559
            
            Splaiul Nicolae Titulescu 7, Timișoara 300160, Romania</description><styleUrl>#icon-1534-0288D1</styleUrl><Point><extrude>0</extrude><altitudeMode>clampToGround</altitudeMode><coordinates>21.2143964,45.7494604,0</coordinates></Point></Placemark><Placemark search_term="coffee point SKÁCELOVA by MOTMOT Skácelova 2792/34, 612 00 Brno, Czech Republic" id="ChIJK1qSFgWUEkcRxOecniBHjXc"><name>MOTMOT</name><description>https://maps.google.com/?cid=8614619867655235524
            
            Skácelova 2792/34, 612 00 Brno-Brno-Královo Pole, Czechia</description><styleUrl>#icon-1534-0288D1</styleUrl><Point><extrude>0</extrude><altitudeMode>clampToGround</altitudeMode><coordinates>16.5857193,49.2218157,0</coordinates></Point></Placemark><Placemark search_term="Röststätte Berlin Rosenthaler Straße 40-41, 10178 Berlin, Germany" id="ChIJ18Mc3-BRqEcRGfPwlRhCovA"><name>Röststätte Berlin</name><description>https://maps.google.com/?cid=17339494188692075289
            
            Rosenthaler Straße 40-41 Hackesche Höfe (Hof, 1, 10178 Berlin, Germany</description><styleUrl>#icon-1534-0288D1</styleUrl><Point><extrude>0</extrude><altitudeMode>clampToGround</altitudeMode><coordinates>13.4022293,52.5241805,0</coordinates></Point></Placemark><Placemark id="ChIJCykiXlMDdkgRYiNFpf4ATCs" search_term="Grind Royal Exchange 34 Royal Exchange, EC3V 3LT London, United Kingdom"><name>Grind</name><description>https://maps.google.com/?cid=3119869735555375970
            
            34 Royal Exchange, London EC3V 3LT, UK</description><styleUrl>#icon-1534-0288D1</styleUrl><Point><extrude>0</extrude><altitudeMode>clampToGround</altitudeMode><coordinates>-0.087741,51.5137076,0</coordinates></Point></Placemark><Placemark search_term="Café Foufou 10 Rue Oberkampf, 75011 Paris, France" id="ChIJ__8bnP1t5kcRLdEhxlLS4fY"><name>Café Foufou</name><description>https://maps.google.com/?cid=17789731256043426093
            
            10 Rue Oberkampf, 75011 Paris, France</description><styleUrl>#icon-1534-0288D1</styleUrl><Point><extrude>0</extrude><altitudeMode>clampToGround</altitudeMode><coordinates>2.3685454999999997,48.8630313,0</coordinates></Point></Placemark><Placemark search_term="Olivo Coffee Culture Strada Octavian Petrovici 7, Cluj-Napoca, 400018 Cluj-Napoca, Romania" id="ChIJcTCDsvgPSUcR0Wb0XIETkuw"><name>Olivo Coffee Culture</name><description>https://maps.google.com/?cid=17046708985881978577
            
            Strada Octavian Petrovici 7, Cluj-Napoca 400018, Romania</description><styleUrl>#icon-1534-0288D1</styleUrl><Point><extrude>0</extrude><altitudeMode>clampToGround</altitudeMode><coordinates>23.5867412,46.7717231,0</coordinates></Point></Placemark><Placemark search_term="Ernst Bonner Str. 56, 50677 Cologne, Germany" id="ChIJX7zHQkYkv0cRlLshWD2gDPE"><name>Ernst Kaffeeröster</name><description>https://maps.google.com/?cid=17369434048193215380
            
            Bonner Str. 56, 50677 Köln, Germany</description><styleUrl>#icon-1534-0288D1</styleUrl><Point><extrude>0</extrude><altitudeMode>clampToGround</altitudeMode><coordinates>6.9603857,50.9179346,0</coordinates></Point></Placemark><Placemark id="ChIJHwvZEB0MZ0gRq5_-eJ3uVFs" search_term="Two Fifty Square Coffee 10 Williams Park Dublin, Ireland"><name>Two Fifty Square</name><description>https://maps.google.com/?cid=6581147315602366379
            
            10 Williams Park, Rathmines, Dublin, Ireland</description><styleUrl>#icon-1534-0288D1</styleUrl><Point><extrude>0</extrude><altitudeMode>clampToGround</altitudeMode><coordinates>-6.266260099999999,53.3252898,0</coordinates></Point></Placemark><Placemark id="ChIJEWJxcDjKuEcRw4SsTLb53Y8" search_term="Lina&apos;s Coffee Fürstenplatz 1, 40215 Dusseldorf, Germany"><name>Lina&apos;s Coffee</name><description>https://maps.google.com/?cid=10366716478642488515
            
            Fürstenpl. 1, 40215 Düsseldorf, Germany</description><styleUrl>#icon-1534-0288D1</styleUrl><Point><extrude>0</extrude><altitudeMode>clampToGround</altitudeMode><coordinates>6.7849508,51.2139659,0</coordinates></Point></Placemark><Placemark search_term="Il Cafetero Via Rembrandt, 12, 20148 Milan, Italy" id="ChIJEzvFpZ3BhkcRBYrttW2Hofg"><name>Il Cafetero Specialty Coffee Milan</name><description>https://maps.google.com/?cid=17915749697929972229
            
            Via Rembrandt, 12, 20148 Milano MI, Italy</description><styleUrl>#icon-1534-0288D1</styleUrl><Point><extrude>0</extrude><altitudeMode>clampToGround</altitudeMode><coordinates>9.1386789,45.4675795,0</coordinates></Point></Placemark><Placemark id="ChIJ65ht9cYbdkgRc7zO041chZo" search_term="Velasquez and Van Wezel Park Road 78, N88JQ London, United Kingdom"><name>Velasquez and Van Wezel</name><description>https://maps.google.com/?cid=11134407417957104755
            
            78 Park Rd, London N8 8JQ, UK</description><styleUrl>#icon-1534-0288D1</styleUrl><Point><extrude>0</extrude><altitudeMode>clampToGround</altitudeMode><coordinates>-0.1265752,51.58191,0</coordinates></Point></Placemark><Placemark id="ChIJERc4hc3dQUcR9zIOxWhqT64" search_term="VAJ József körút 30-32, 1085 Budapest, Hungary"><name>VAJ</name><description>https://maps.google.com/?cid=12560374883974787831
            
            Budapest, József krt. 30-32, 1085 Hungary</description><styleUrl>#icon-1534-0288D1</styleUrl><Point><extrude>0</extrude><altitudeMode>clampToGround</altitudeMode><coordinates>19.0714369,47.493150799999995,0</coordinates></Point></Placemark><Placemark id="ChIJLc-Nv-VRqEcRPoL5jV8hMaI" search_term="Röststätte Berlin Ackerstraße 173, 10115 Berlin, Germany"><name>Röststätte</name><description>https://maps.google.com/?cid=11687159202290696766
            
            Ackerstraße 173, 10115 Berlin, Germany</description><styleUrl>#icon-1534-0288D1</styleUrl><Point><extrude>0</extrude><altitudeMode>clampToGround</altitudeMode><coordinates>13.3974173,52.5290273,0</coordinates></Point></Placemark><Placemark search_term="Kaffeemodul Josefstädter Straße 35, 1080 Vienna, Austria" id="ChIJyZgtausHbUcReKA8afVloOk"><name>Kaffeemodul</name><description>https://maps.google.com/?cid=16834567511817887864
            
            Josefstädter Str. 35, 1080 Wien, Austria</description><styleUrl>#icon-1534-0288D1</styleUrl><Point><extrude>0</extrude><altitudeMode>clampToGround</altitudeMode><coordinates>16.348482399999998,48.209606699999995,0</coordinates></Point></Placemark><Placemark search_term="Fabrika Braće Fejića, 88000 Mostar, Bosnia &amp; Herzegovina" id="ChIJuRV8e35DSxMRfPhHZldaOiE"><name>Fabrika Coffee Mostar - Specialty Coffee &amp; Pizza</name><description>https://maps.google.com/?cid=2394325483325487228
            
            Braće Fejića 30, Mostar 88000, Bosnia and Herzegovina</description><styleUrl>#icon-1534-0288D1</styleUrl><Point><extrude>0</extrude><altitudeMode>clampToGround</altitudeMode><coordinates>17.8127076,43.3424982,0</coordinates></Point></Placemark><Placemark id="ChIJTQes36xvE0cRdRJAaJuAvKI" search_term="Jizba Luhačovice Masarykova 198, 763 26 Luhačovice, Czech Republic"><name>Jizba Luhačovice</name><description>https://maps.google.com/?cid=11726388934723244661
            
            Masarykova 198, 763 26 Luhačovice, Czechia</description><styleUrl>#icon-1534-0288D1</styleUrl><Point><extrude>0</extrude><altitudeMode>clampToGround</altitudeMode><coordinates>17.7595085,49.1006478,0</coordinates></Point></Placemark><Placemark id="ChIJLXpZJUPZuxQR2uh4f0uG_Y4" search_term="The Walnut Coffee Bostanlı, 2014. Sk. 17/A, 35590 Izmir, Turkey"><name>The Walnut Coffee</name><description>https://maps.google.com/?cid=10303539181312862426
            
            Bostanlı, 2014. Sk. 17/A, 35590 Karşıyaka/İzmir, Türkiye</description><styleUrl>#icon-1534-0288D1</styleUrl><Point><extrude>0</extrude><altitudeMode>clampToGround</altitudeMode><coordinates>27.0966369,38.4566377,0</coordinates></Point></Placemark><Placemark search_term="Al Gharb Beco do Sol 3, 8200-269 Albufeira, Portugal" id="ChIJm4ADjV3NGg0RvslHEhArOwI"><name>Al-Gharb Coffee Roasters</name><description>https://maps.google.com/?cid=160769559727950270
            
            Beco do Sol 3, 8200-269 Albufeira, Portugal</description><styleUrl>#icon-1534-0288D1</styleUrl><Point><extrude>0</extrude><altitudeMode>clampToGround</altitudeMode><coordinates>-8.2235517,37.0922458,0</coordinates></Point></Placemark><Placemark search_term="Wake Cup Piazza Niccolò Tommaseo, 11, 31044 Montebelluna, Italy" id="ChIJXcTqgIQleUcRR_KuNeZi-Ec"><name>Wake Cup - a different coffee story</name><description>https://maps.google.com/?cid=5186003711799784007
            
            P.za Nicolò Tommaseo, 11, 31044 Montebelluna TV, Italy</description><styleUrl>#icon-1534-0288D1</styleUrl><Point><extrude>0</extrude><altitudeMode>clampToGround</altitudeMode><coordinates>12.0464593,45.7769491,0</coordinates></Point></Placemark><Placemark search_term="sistema madrid" id="ChIJ67WA_80nQg0RtwT9mW7RHW0"><name>Sistema Café</name><description>https://maps.google.com/?cid=7862670797418857655
            
            C. de Don Pedro, 20, Centro, 28005 Madrid, Spain</description><styleUrl>#icon-1534-0288D1</styleUrl><Point><extrude>0</extrude><altitudeMode>clampToGround</altitudeMode><coordinates>-3.7144265,40.4119221,0</coordinates></Point></Placemark><Placemark id="ChIJ57HSHAdu5kcR_omNfYABNwo" search_term="Fringe Coffee Paris 106 Rue de Turenne,, 75003 Paris, France"><name>Fringe</name><description>https://maps.google.com/?cid=736058715472235006
            
            106 Rue de Turenne, 75003 Paris, France</description><styleUrl>#icon-1534-0288D1</styleUrl><Point><extrude>0</extrude><altitudeMode>clampToGround</altitudeMode><coordinates>2.3647928,48.8627833,0</coordinates></Point></Placemark><Placemark search_term="eastcremacoffeehernani donostia" id="ChIJv4gtIcelUQ0RF2CisDNOuIA"><name>East Crema Coffee Hernani (Specialty Coffee Donostia)</name><description>https://maps.google.com/?cid=9275249416483266583
            
            Hernani K., 6, 20004 Donostia, Gipuzkoa, Spain</description><styleUrl>#icon-1534-0288D1</styleUrl><Point><extrude>0</extrude><altitudeMode>clampToGround</altitudeMode><coordinates>-1.9838671,43.3196231,0</coordinates></Point></Placemark><Placemark search_term="Bowl Market Gasværksvej 3, 1656 Copenhagen, Denmark" id="ChIJm4dyzHRTUkYR54ZtPt6-L28"><name>Bowl Market Copenhagen, Vesterbro</name><description>https://maps.google.com/?cid=8011832123854784231
            
            Gasværksvej 3, 1656 København V, Denmark</description><styleUrl>#icon-1534-0288D1</styleUrl><Point><extrude>0</extrude><altitudeMode>clampToGround</altitudeMode><coordinates>12.5561653,55.6720189,0</coordinates></Point></Placemark><Placemark search_term="L&apos;Arbre à Café 10 Rue du Nil, 75002 Paris, France" id="ChIJV0KEoxdu5kcRNQ5kjFpQ1T4"><name>L&apos;Arbre à Café - Rue du Nil</name><description>https://maps.google.com/?cid=4527613350223547957
            
            10 Rue du Nil, 75002 Paris, France</description><styleUrl>#icon-1534-0288D1</styleUrl><Point><extrude>0</extrude><altitudeMode>clampToGround</altitudeMode><coordinates>2.3476676999999997,48.86776390000001,0</coordinates></Point></Placemark><Placemark id="ChIJEzSlx2SVC0cRAR0wdPYkAek" search_term="mamacoffee Jaromírova Jaromírova 576/34, 128 00 Prague, Czech Republic"><name>mamacoffe Jaromírova</name><description>https://maps.google.com/?cid=16789741526743784705
            
            Jaromírova 576/34, 128 00 Praha 2-Nusle, Czechia</description><styleUrl>#icon-1534-0288D1</styleUrl><Point><extrude>0</extrude><altitudeMode>clampToGround</altitudeMode><coordinates>14.4289779,50.0648918,0</coordinates></Point></Placemark><Placemark search_term="Kavalo Coffee House Hlavní tř. 685, Poruba, 708 00 Ostrava, Czech Republic" id="ChIJB1MnwZvhE0cRNTLXRKjoSeM"><name>Kavalo Coffee House</name><description>https://maps.google.com/?cid=16377877329316622901
            
            Hlavní tř. 685, 708 00 Ostrava-Poruba, Czechia</description><styleUrl>#icon-1534-0288D1</styleUrl><Point><extrude>0</extrude><altitudeMode>clampToGround</altitudeMode><coordinates>18.1678275,49.830285,0</coordinates></Point></Placemark><Placemark id="ChIJ27V5iakpsUcRjp9D0SSjBeI" search_term="Glücksbohne Rösterei Ostertorsteinweg 66, 28203 Bremen, Germany"><name>Glücksbohne Café &amp; Rösterei</name><description>https://maps.google.com/?cid=16286603005980286862
            
            Ostertorsteinweg 66, 28203 Bremen, Germany</description><styleUrl>#icon-1534-0288D1</styleUrl><Point><extrude>0</extrude><altitudeMode>clampToGround</altitudeMode><coordinates>8.8179992,53.0722362,0</coordinates></Point></Placemark><Placemark id="ChIJ363faggJxkcReaBzKBaPCnQ" search_term="Five Ways Coffee Roasters Boerhaaveplein 3, 1091 DH Amsterdam, Netherlands"><name>Five Ways Coffee Roasters</name><description>https://maps.google.com/?cid=8361652983497465977
            
            Boerhaaveplein 3, 1091 DH Amsterdam, Netherlands</description><styleUrl>#icon-1534-0288D1</styleUrl><Point><extrude>0</extrude><altitudeMode>clampToGround</altitudeMode><coordinates>4.9123059,52.3598712,0</coordinates></Point></Placemark><Placemark id="ChIJ3ZmYqCmjoRQRe2yAI3tV_C8" search_term="Faba Coffee Roasters Kirillou Loukareos 43, 114 75 Athens, Greece"><name>Faba Coffee Roasters</name><description>https://maps.google.com/?cid=3457732601278655611
            
            Kirillou Loukareos 43, Athina 114 75, Greece</description><styleUrl>#icon-1534-0288D1</styleUrl><Point><extrude>0</extrude><altitudeMode>clampToGround</altitudeMode><coordinates>23.752515,37.9910874,0</coordinates></Point></Placemark><Placemark search_term="Caravelle Carrer Pintor Fortuny 31, 08001 Barcelona, Spain" id="ChIJBf8_w_WipBIRCGjZPVuEL8c"><name>Caravelle</name><description>https://maps.google.com/?cid=14352836064867608584
            
            C/ del Pintor Fortuny, 31, Ciutat Vella, 08001 Barcelona, Spain</description><styleUrl>#icon-1534-0288D1</styleUrl><Point><extrude>0</extrude><altitudeMode>clampToGround</altitudeMode><coordinates>2.1688169,41.3822758,0</coordinates></Point></Placemark><Placemark search_term="Café Deins und Meins Ludwigstraße 7, 89231 Neu-Ulm, Germany" id="ChIJIXGT91xnmUcR49qNRfWxvms"><name>Deins und Meins | Café und Frühstückslokal Neu Ulm</name><description>https://maps.google.com/?cid=7763838474625342179
            
            Ludwigstraße 7, 89231 Neu-Ulm, Germany</description><styleUrl>#icon-1534-0288D1</styleUrl><Point><extrude>0</extrude><altitudeMode>clampToGround</altitudeMode><coordinates>10.0015594,48.3942673,0</coordinates></Point></Placemark><Placemark search_term="Caleo cafe Rue Bouré 1, 1050 Brussels, Belgium" id="ChIJG4jdW5zFw0cRgyEh81X98-k"><name>Caleo Café</name><description>https://maps.google.com/?cid=16858096375770980739
            
            Rue Bouré 1, 1050 Ixelles, Belgium</description><styleUrl>#icon-1534-0288D1</styleUrl><Point><extrude>0</extrude><altitudeMode>clampToGround</altitudeMode><coordinates>4.366086900000001,50.835805099999995,0</coordinates></Point></Placemark><Placemark id="ChIJ4Qk1Wkzj2UcRfRbAISmbyCg" search_term="Kofra 1 Bell Road, NR3 4RA Norwich, United Kingdom"><name>Kofra Coffee Roasters</name><description>https://maps.google.com/?cid=2938769357821449853
            
            1 Bell Rd, Norwich NR3 4RA, UK</description><styleUrl>#icon-1534-0288D1</styleUrl><Point><extrude>0</extrude><altitudeMode>clampToGround</altitudeMode><coordinates>1.3006571,52.6432016,0</coordinates></Point></Placemark><Placemark id="ChIJD_WNAkg9WQ0R3po2ywRpkks" search_term="San Jorge Coffee Roasters Ctra Castellón Km 224, 50730 Zaragoza, Spain"><name>San Jorge | Café del Bueno</name><description>https://maps.google.com/?cid=5445530368754490078
            
            Ctra Castellón, Km 224, Naves, 50730 El Burgo de Ebro, Zaragoza, Spain</description><styleUrl>#icon-1534-0288D1</styleUrl><Point><extrude>0</extrude><altitudeMode>clampToGround</altitudeMode><coordinates>-0.7628799,41.5784375,0</coordinates></Point></Placemark><Placemark search_term="sipcoffeebar bordeaux" id="ChIJmTHmacMnVQ0RWtipYTYVCUI"><name>SIP Coffee Bar</name><description>https://maps.google.com/?cid=4758357804604577882
            
            69 Bis Rue des Trois-Conils, 33000 Bordeaux, France</description><styleUrl>#icon-1534-0288D1</styleUrl><Point><extrude>0</extrude><altitudeMode>clampToGround</altitudeMode><coordinates>-0.5786079,44.8386104,0</coordinates></Point></Placemark><Placemark search_term="COFFEE &amp;amp; strangers 267 Triq Manwel Dimech Sliema, Malta" id="ChIJVcutfp5FDhMRwP15uPF06nk"><name>COFFEE &amp; strangers Espresso Bar</name><description>https://maps.google.com/?cid=8784962604670516672
            
            267 Triq Manwel Dimech, Tas-Sliema, Malta</description><styleUrl>#icon-1534-0288D1</styleUrl><Point><extrude>0</extrude><altitudeMode>clampToGround</altitudeMode><coordinates>14.4974236,35.910495,0</coordinates></Point></Placemark><Placemark search_term="Ministerstwo Kawy Marszałkowska 27, 00-639 Warsaw, Poland" id="ChIJUfm8NMIqGUcR7TIkklj_bXQ"><name>Ministry of Coffee</name><description>https://maps.google.com/?cid=8389642436735152877
            
            Marszałkowska 27/35, 00-639 Warszawa, Poland</description><styleUrl>#icon-1534-0288D1</styleUrl><Point><extrude>0</extrude><altitudeMode>clampToGround</altitudeMode><coordinates>21.018337,52.2187904,0</coordinates></Point></Placemark><Placemark search_term="Podda &amp;amp;amp;amp;amp;amp; Wren Coffee Roasters 4 Elephant Yard, Kendal LA9 4QQ, UK, LA9 4QQ Kendal, United Kingdom" id="ChIJo4uxiCONfEgRZZHSKCILPWA"><name>Podda &amp; Wren Coffee Roasters</name><description>https://maps.google.com/?cid=6934711242562113893
            
            4 Elephant Yard, Kendal LA9 4QQ, UK</description><styleUrl>#icon-1534-0288D1</styleUrl><Point><extrude>0</extrude><altitudeMode>clampToGround</altitudeMode><coordinates>-2.7479947,54.3290284,0</coordinates></Point></Placemark><Placemark id="ChIJjcIaph0PdkgRAldJgxgMpX4" search_term="Guillam Coffee House 26 Notting Hill Gate, London, W11 3HX London, United Kingdom"><name>Guillam Coffee House</name><description>https://maps.google.com/?cid=9125713519357548290
            
            26 Notting Hill Gate, London W11 3HX, UK</description><styleUrl>#icon-1534-0288D1</styleUrl><Point><extrude>0</extrude><altitudeMode>clampToGround</altitudeMode><coordinates>-0.1942895,51.5096115,0</coordinates></Point></Placemark><Placemark id="ChIJHeEkbyiVC0cRlTR1WIReK-c" search_term="Cafe &amp; pastry Luka Mukařovského 1985, 155 00 Prague, Czech Republic"><name>cafe_pastry_luka</name><description>https://maps.google.com/?cid=16657511569272681621
            
            Mukařovského 1985, 155 00 Praha 13, Czechia</description><styleUrl>#icon-1534-0288D1</styleUrl><Point><extrude>0</extrude><altitudeMode>clampToGround</altitudeMode><coordinates>14.3217159,50.045021,0</coordinates></Point></Placemark><Placemark search_term="Mala Leche - Coffee &amp;amp;amp;amp;amp;amp; Bakery C. Castillo de Sohail, 1, 29005 Málaga, Spain" id="ChIJRalQ3c33cg0RRzsNO1CMieg"><name>Mala Leche - Coffee &amp; Bakery</name><description>https://maps.google.com/?cid=16756078164824636231
            
            C. Castillo de Sohail, 1, Distrito Centro, 29005 Málaga, Spain</description><styleUrl>#icon-1534-0288D1</styleUrl><Point><extrude>0</extrude><altitudeMode>clampToGround</altitudeMode><coordinates>-4.4242716,36.7205322,0</coordinates></Point></Placemark><Placemark id="ChIJVRNaNL8OvUcRPhPtBe_6I6Y" search_term="Hoppenworth &amp;amp;amp;amp;amp;amp; Ploch Nordend Friedberger Landstraße 86, 60316 Frankfurt, Germany"><name>Hoppenworth &amp; Ploch Nordend</name><description>https://maps.google.com/?cid=11971688138984461118
            
            Friedberger Landstraße 86, 60316 Frankfurt am Main, Germany</description><styleUrl>#icon-1534-0288D1</styleUrl><Point><extrude>0</extrude><altitudeMode>clampToGround</altitudeMode><coordinates>8.6920212,50.1248266,0</coordinates></Point></Placemark><Placemark id="ChIJR97QN_cHbUcRtl5tEBPfKqw" search_term="Carl Ludwig Cafe Favoritenstrasse 7, 1040 Vienna, Austria"><name>Carl Ludwig Cafe</name><description>https://maps.google.com/?cid=12405973396518428342
            
            Favoritenstraße 7, 1040 Wien, Austria</description><styleUrl>#icon-1534-0288D1</styleUrl><Point><extrude>0</extrude><altitudeMode>clampToGround</altitudeMode><coordinates>16.3695162,48.1954044,0</coordinates></Point></Placemark><Placemark id="ChIJt8oASGFgLxMR14WNPCt_G7c" search_term="Pergamino Caffè Piazza del Risorgimento, 7, 00192 Rome, Italy"><name>Pergamino Caffè</name><description>https://maps.google.com/?cid=13194279356988229079
            
            Piazza del Risorgimento, 7, 00192 Roma RM, Italy</description><styleUrl>#icon-1534-0288D1</styleUrl><Point><extrude>0</extrude><altitudeMode>clampToGround</altitudeMode><coordinates>12.4566024,41.90660090000001,0</coordinates></Point></Placemark><Placemark id="ChIJtxneYBYlvkcRr0q3oBWj1XU" search_term="drei &amp;amp;amp;amp;amp;amp; fünf Brückenstraße 32, 56841 Traben-Trarbach, Germany"><name>drei &amp; fünf – Rösterei &amp; Café</name><description>https://maps.google.com/?cid=8490871985762945711
            
            Brückenstraße 32, 56841 Traben-Trarbach, Germany</description><styleUrl>#icon-1534-0288D1</styleUrl><Point><extrude>0</extrude><altitudeMode>clampToGround</altitudeMode><coordinates>7.1145669,49.9481414,0</coordinates></Point></Placemark><Placemark search_term="Comfy Café &amp;amp; Bistro Růžové nám. 2128/5, 680 01 Boskovice, Czech Republic" id="ChIJGUIXHX9jEkcR91UXEmuf5Sw"><name>COMFY CAFÉ &amp; Bistro</name><description>https://maps.google.com/?cid=3235167189549405687
            
            Růžové nám. 2128/5, 680 01 Boskovice, Czechia</description><styleUrl>#icon-1534-0288D1</styleUrl><Point><extrude>0</extrude><altitudeMode>clampToGround</altitudeMode><coordinates>16.6606137,49.49005220000001,0</coordinates></Point></Placemark><Placemark search_term="Barrio Darmstädter Landstraße 42, 60594 Frankfurt, Germany" id="ChIJvzRYZZ8NvUcRSWDpLqXInqw"><name>Barrio Frankfurt</name><description>https://maps.google.com/?cid=12438599832626094153
            
            Darmstädter Landstraße 42, 60594 Frankfurt am Main, Germany</description><styleUrl>#icon-1534-0288D1</styleUrl><Point><extrude>0</extrude><altitudeMode>clampToGround</altitudeMode><coordinates>8.690373,50.10254750000001,0</coordinates></Point></Placemark><Placemark search_term="LET’S COFFEE Constantin Daicoviciu, 400020 Cluj-Napoca, Romania" id="ChIJhdPlIZwOSUcRbwEIPjnpmIA"><name>LET’S COFFEE</name><description>https://maps.google.com/?cid=9266412665377915247
            
            Strada Constantin Daicoviciu 8, Cluj-Napoca 400020, Romania</description><styleUrl>#icon-1534-0288D1</styleUrl><Point><extrude>0</extrude><altitudeMode>clampToGround</altitudeMode><coordinates>23.5850726,46.7711656,0</coordinates></Point></Placemark><Placemark search_term="Simona Specialty Coffee Club Ramón María Lili Pasealekua, 2, Bajo, 20002 Donostia-San Sebastián, Spain" id="ChIJ1eKzLuGlUQ0R6v6p35K1HxI"><name>Simona Specialty Coffee Club</name><description>https://maps.google.com/?cid=1305962059383045866
            
            Ramón María Lili Pasealekua, 2, Bajo, 20002 San Sebastián, Gipuzkoa, Spain</description><styleUrl>#icon-1534-0288D1</styleUrl><Point><extrude>0</extrude><altitudeMode>clampToGround</altitudeMode><coordinates>-1.9789495,43.3234269,0</coordinates></Point></Placemark><Placemark id="ChIJrQ7nLrAddkgR72G2kJa2r5U" search_term="Urban Baristas Warmwood 22-24 Wormwood Street, EC2M 1RP London, United Kingdom"><name>Urban Baristas</name><description>https://maps.google.com/?cid=10786040390364848623
            
            22-24 Wormwood St, London EC2M 1RP, UK</description><styleUrl>#icon-1534-0288D1</styleUrl><Point><extrude>0</extrude><altitudeMode>clampToGround</altitudeMode><coordinates>-0.08224229999999999,51.5163509,0</coordinates></Point></Placemark><Placemark id="ChIJ630PeBwKkEcRcUJSeYOiTx4" search_term="COFFEE Grüngasse 4, 8004 Zurich, Switzerland"><name>COFFEE</name><description>https://maps.google.com/?cid=2184143029857829489
            
            Grüngasse 4, 8004 Zürich, Switzerland</description><styleUrl>#icon-1534-0288D1</styleUrl><Point><extrude>0</extrude><altitudeMode>clampToGround</altitudeMode><coordinates>8.526293899999999,47.3726576,0</coordinates></Point></Placemark><Placemark id="ChIJp2v_FhbPCUcRlhnCpHv1DIo" search_term="Lucky Cat Coffee Roasters Hauptstraße 29, 01097 Dresden, Germany"><name>Lucky Cat Coffee Roasters</name><description>https://maps.google.com/?cid=9947595588348549526
            
            Hauptstraße 29, 01097 Dresden, Germany</description><styleUrl>#icon-1534-0288D1</styleUrl><Point><extrude>0</extrude><altitudeMode>clampToGround</altitudeMode><coordinates>13.7441486,51.061170399999995,0</coordinates></Point></Placemark><Placemark search_term="La Guashira Specialty Coffee Experience Carrer dels Flassaders, 8, 46001 Valencia, Spain" id="ChIJCR73FZVPYA0Rwim8rn2jR00"><name>La Guashira Specialty Coffee Experience</name><description>https://maps.google.com/?cid=5568599224464714178
            
            Carrer dels Flassaders, 8, Ciutat Vella, 46001 València, Valencia, Spain</description><styleUrl>#icon-1534-0288D1</styleUrl><Point><extrude>0</extrude><altitudeMode>clampToGround</altitudeMode><coordinates>-0.3775831,39.4725717,0</coordinates></Point></Placemark><Placemark id="ChIJh-tMOEaUEkcRVKKJxX60QXU" search_term="Veroni coffee &amp;amp; chocolate Gorkého 42, 602 00 Brno, Czech Republic"><name>VERONI coffee &amp; chocolate</name><description>https://maps.google.com/?cid=8449232832496771668
            
            Gorkého 42, 602 00 Brno-střed, Czechia</description><styleUrl>#icon-1534-0288D1</styleUrl><Point><extrude>0</extrude><altitudeMode>clampToGround</altitudeMode><coordinates>16.594279999999998,49.1994011,0</coordinates></Point></Placemark><Placemark id="ChIJ1RBEzedFiEgRblU-A4tNZ_U" search_term="Meadow Road Cafe 579 Dumbarton Road, G11 6HY Glasgow, United Kingdom"><name>Meadow Road Coffee</name><description>https://maps.google.com/?cid=17683187721343751534
            
            579 Dumbarton Rd, Partick, Glasgow G11 6HY, UK</description><styleUrl>#icon-1534-0288D1</styleUrl><Point><extrude>0</extrude><altitudeMode>clampToGround</altitudeMode><coordinates>-4.3167978,55.87056150000001,0</coordinates></Point></Placemark><Placemark search_term="BETTER Specialty Coffee ul. &amp;quot;Neofit Rilski&amp;quot; 59, 1000 Sofia, Bulgaria" id="ChIJJ0WPPkWFqkARfLB-V2O8GNg"><name>Better Specialty Coffee</name><description>https://maps.google.com/?cid=15571402846489194620
            
            Old City Center, ul. &quot;Neofit Rilski&quot; 59, 1000 Sofia, Bulgaria</description><styleUrl>#icon-1534-0288D1</styleUrl><Point><extrude>0</extrude><altitudeMode>clampToGround</altitudeMode><coordinates>23.3244851,42.689910999999995,0</coordinates></Point></Placemark><Placemark id="ChIJ2zevKwi9rhIRm1oGyOr32ms" search_term="Minifundi 22 Rue du Faubourg Bonnefoy, 31500 Toulouse, France"><name>Minifundi</name><description>https://maps.google.com/?cid=7771796694731479707
            
            22 Rue du Faubourg Bonnefoy, 31500 Toulouse, France</description><styleUrl>#icon-1534-0288D1</styleUrl><Point><extrude>0</extrude><altitudeMode>clampToGround</altitudeMode><coordinates>1.4545633999999998,43.6169728,0</coordinates></Point></Placemark><Placemark search_term="Merle C/ de Lepant 338, 08025 Barcelona, Spain" id="ChIJHfVnleOjpBIRK10KOb7FL4Q"><name>Merle Coffee</name><description>https://maps.google.com/?cid=9525049157703327019
            
            C/ de Lepant, 338, L&apos;Eixample, 08025 Barcelona, Spain</description><styleUrl>#icon-1534-0288D1</styleUrl><Point><extrude>0</extrude><altitudeMode>clampToGround</altitudeMode><coordinates>2.1730596,41.4074867,0</coordinates></Point></Placemark><Placemark id="ChIJra52V2dJYA0RghAOmLM2Nqg" search_term="East Crema Coffee Sorní C/ de Sorní, 19, L&amp;apos;Eixample, 46004 Valencia, Spain"><name>East Crema Coffee. Specialty coffee</name><description>https://maps.google.com/?cid=12120935592092373122
            
            C/ de Sorní, 19, L&apos;Eixample, 46004 València, Valencia, Spain</description><styleUrl>#icon-1534-0288D1</styleUrl><Point><extrude>0</extrude><altitudeMode>clampToGround</altitudeMode><coordinates>-0.3675948,39.4704001,0</coordinates></Point></Placemark><Placemark id="ChIJrXe1CooMdkgRjZzmOQYcHz0" search_term="The Press Room 29 London Road, TW1 3SZ London, United Kingdom"><name>The Press Room</name><description>https://maps.google.com/?cid=4404269773658430605
            
            29 London Rd, Twickenham TW1 3SZ, UK</description><styleUrl>#icon-1534-0288D1</styleUrl><Point><extrude>0</extrude><altitudeMode>clampToGround</altitudeMode><coordinates>-0.3289169,51.4475588,0</coordinates></Point></Placemark><Placemark search_term="Pot Kettle Black Unit 14 Barton Arcade, Deansgate, M3 2BW Manchester, United Kingdom" id="ChIJhcrI9sOxe0gRcOCKdjUec08"><name>POT KETTLE BLACK Barton Arcade</name><description>https://maps.google.com/?cid=5724952766288945264
            
            Barton Arcade, Manchester M3 2BW, UK</description><styleUrl>#icon-1534-0288D1</styleUrl><Point><extrude>0</extrude><altitudeMode>clampToGround</altitudeMode><coordinates>-2.2463010999999997,53.4827501,0</coordinates></Point></Placemark><Placemark search_term="Popup Café 16 High St, CT147AE Deal, United Kingdom" id="ChIJz8BJGNCu3kcRdXwrn8np-3Q"><name>Pop Up Cafe</name><description>https://maps.google.com/?cid=8429588179722140789
            
            16-18 High St, Deal CT14 7AE, UK</description><styleUrl>#icon-1534-0288D1</styleUrl><Point><extrude>0</extrude><altitudeMode>clampToGround</altitudeMode><coordinates>1.4028748,51.2227206,0</coordinates></Point></Placemark><Placemark id="ChIJ5fpQeh2VEkcR1w140nrZ6tI" search_term="Industra Coffee Lazaretní 925/9, 615 00 Brno, Czech Republic"><name>Industra Coffee</name><description>https://maps.google.com/?cid=15198199014055480791
            
            Lazaretní 925/9, 615 00 Brno-Židenice, Czechia</description><styleUrl>#icon-1534-0288D1</styleUrl><Point><extrude>0</extrude><altitudeMode>clampToGround</altitudeMode><coordinates>16.6338839,49.2082531,0</coordinates></Point></Placemark><Placemark id="ChIJ87TLZSJrUQ0Rw9B1hUlHr-0" search_term="Caracoli 1 Rue de Larralde, 64200 Biarritz, France"><name>CARACOLI</name><description>https://maps.google.com/?cid=17126986289010561219
            
            1 Rue de Larralde, 64200 Biarritz, France</description><styleUrl>#icon-1534-0288D1</styleUrl><Point><extrude>0</extrude><altitudeMode>clampToGround</altitudeMode><coordinates>-1.5579173,43.4817124,0</coordinates></Point></Placemark><Placemark search_term="Perfect Simplu Splaiul Independenței 17, București, 050093 Bucharest, Romania" id="ChIJl_PUJy7_sUAR86M3uokb_PE"><name>Perfect Simplu Specialty Coffee &amp; Brunch</name><description>https://maps.google.com/?cid=17436842135620396019
            
            Blocul 101 scara D, Splaiul Independenței nr 17, București 050093, Romania</description><styleUrl>#icon-1534-0288D1</styleUrl><Point><extrude>0</extrude><altitudeMode>clampToGround</altitudeMode><coordinates>26.0936492,44.4319643,0</coordinates></Point></Placemark><Placemark id="ChIJ05GOwmpnRUcRntE3Tg3FA_U" search_term="Statia de Cafea Vox Calea Torontalului 69, 300668 Timisoara, Romania"><name>Statia de Cafea Vox</name><description>https://maps.google.com/?cid=17655171625160003998
            
            Vox Technology Park, Clădirea A, Calea Torontalului 69, Timișoara 300668, Romania</description><styleUrl>#icon-1534-0288D1</styleUrl><Point><extrude>0</extrude><altitudeMode>clampToGround</altitudeMode><coordinates>21.2131881,45.7748985,0</coordinates></Point></Placemark><Placemark id="ChIJ-R5FqAL3mkcRX6C30ExgEMk" search_term="N° elf - Spezialitätenkaffee Gerichtsgasse 11, 78462 Konstanz, Germany"><name>N ° eleven - Wine &amp; Coffee</name><description>https://maps.google.com/?cid=14488185884286361695
            
            Gerichtsgasse 11, 78462 Konstanz, Germany</description><styleUrl>#icon-1534-0288D1</styleUrl><Point><extrude>0</extrude><altitudeMode>clampToGround</altitudeMode><coordinates>9.1745631,47.6641963,0</coordinates></Point></Placemark><Placemark search_term="Poco 40.24 40 Ekklision 3A, Xanthi 671 00, Greece, 671 00 Xanthi, Greece" id="ChIJ-Yjc0V4trBQRe7E2f1PxN1Y"><name>Poco 40I24</name><description>https://maps.google.com/?cid=6212699551899758971
            
            40 Ekklision 3A, Xanthi 671 00, Greece</description><styleUrl>#icon-1534-0288D1</styleUrl><Point><extrude>0</extrude><altitudeMode>clampToGround</altitudeMode><coordinates>24.8858776,41.1362428,0</coordinates></Point></Placemark><Placemark id="ChIJ0ZZGAPUBskARsLoyjmKLqaM" search_term="Saint Roastery Strada Maltopol 26 bis, 010046 Bucharest, Romania"><name>Saint Roastery Specialty Coffee</name><description>https://maps.google.com/?cid=11793110354655099568
            
            Strada Maltopol 26 bis, București 010046, Romania</description><styleUrl>#icon-1534-0288D1</styleUrl><Point><extrude>0</extrude><altitudeMode>clampToGround</altitudeMode><coordinates>26.0783351,44.4513476,0</coordinates></Point></Placemark><Placemark search_term="Fortin Ridderstraat 6, 5211 KA &amp;amp;amp;amp;amp;apos;s-Hertogenbosch, Netherlands" id="ChIJpS_Rdy6hxkcRW0qmmREEw2o"><name>Fortin | Home of Specialty Coffee</name><description>https://maps.google.com/?cid=7692997062117706331
            
            Ridderstraat 6, 5211 KA &apos;s-Hertogenbosch, Netherlands</description><styleUrl>#icon-1534-0288D1</styleUrl><Point><extrude>0</extrude><altitudeMode>clampToGround</altitudeMode><coordinates>5.303671899999999,51.6883296,0</coordinates></Point></Placemark><Placemark id="ChIJa7A4pW2PsUcRxgWjs08XSKA" search_term="playgroundcoffee hamburg"><name>Playground Coffee St. Pauli</name><description>https://maps.google.com/?cid=11549506875475297734
            
            Detlev-Bremer-Straße 21, 20359 Hamburg, Germany</description><styleUrl>#icon-1534-0288D1</styleUrl><Point><extrude>0</extrude><altitudeMode>clampToGround</altitudeMode><coordinates>9.9653817,53.5516693,0</coordinates></Point></Placemark><Placemark search_term="Substance Café 30 Rue Dussoubs, 75002 Paris, France" id="ChIJ8yhUK1Zv5kcRBrhi_z2cVyA"><name>Substance Café</name><description>https://maps.google.com/?cid=2330503122279118854
            
            30 Rue Dussoubs, 75002 Paris, France</description><styleUrl>#icon-1534-0288D1</styleUrl><Point><extrude>0</extrude><altitudeMode>clampToGround</altitudeMode><coordinates>2.34923,48.8662418,0</coordinates></Point></Placemark><Placemark search_term="On y va Eixample Carrer de Balmes, 50, L&amp;amp;amp;amp;amp;apos;Eixample, 08007 Barcelona, Spain" id="ChIJKZ7lwZyjpBIRWypRk6qG_8w"><name>Onyva Coffee - Balmes</name><description>https://maps.google.com/?cid=14771673369972648539
            
            C/ de Balmes, 50, L&apos;Eixample, 08007 Barcelona, Spain</description><styleUrl>#icon-1534-0288D1</styleUrl><Point><extrude>0</extrude><altitudeMode>clampToGround</altitudeMode><coordinates>2.1634133,41.3890269,0</coordinates></Point></Placemark><Placemark id="ChIJR-ngtToTxkcRYWZ8YmRMMzA" search_term="11 O&amp;apos;coffee Brinklaan 102, 1404 GS Bussum, Netherlands"><name>Koffiebar &amp; Lunchroom Bussum | 11 O&apos;COFFEE</name><description>https://maps.google.com/?cid=3473203731665544801
            
            Brinklaan 102, 1404 GS Bussum, Netherlands</description><styleUrl>#icon-1534-0288D1</styleUrl><Point><extrude>0</extrude><altitudeMode>clampToGround</altitudeMode><coordinates>5.162678700000001,52.272649099999995,0</coordinates></Point></Placemark><Placemark id="ChIJLzl63NsHvUcR5N6SdnWvJ_I" search_term="green &amp;amp;amp;amp;amp;amp; berry Louisenstraße 13, 61348 Bad Homburg, Germany"><name>green &amp; berry</name><description>https://maps.google.com/?cid=17449108200305647332
            
            Louisenstraße 13, 61348 Bad Homburg vor der Höhe, Germany</description><styleUrl>#icon-1534-0288D1</styleUrl><Point><extrude>0</extrude><altitudeMode>clampToGround</altitudeMode><coordinates>8.612785299999999,50.228418299999994,0</coordinates></Point></Placemark><Placemark id="ChIJRWSrE2vcQUcRgWHkjj0OR3Y" search_term="9BAR Lázár utca 5, 1065 Budapest, Hungary"><name>9BAR</name><description>https://maps.google.com/?cid=8522796477375078785
            
            Budapest, Lázár u. 5, 1065 Hungary</description><styleUrl>#icon-1534-0288D1</styleUrl><Point><extrude>0</extrude><altitudeMode>clampToGround</altitudeMode><coordinates>19.0559108,47.501931,0</coordinates></Point></Placemark><Placemark id="ChIJM05nskBZmkcRsRrMoMFEjQU" search_term="KABO KAFFEE - Roastery &amp;amp;amp;amp;amp;amp; Coffeeshop Spitalgasse 4, 88662 Überlingen, Germany"><name>KABO Rösterei und Kaffeebar</name><description>https://maps.google.com/?cid=400051540322949809
            
            Spitalgasse 4, 88662 Überlingen, Germany</description><styleUrl>#icon-1534-0288D1</styleUrl><Point><extrude>0</extrude><altitudeMode>clampToGround</altitudeMode><coordinates>9.1606492,47.768118699999995,0</coordinates></Point></Placemark><Placemark id="ChIJ-37Uv-4Qm0cR0cgzduSQt6o" search_term="Maillardos Kaffeerösterei Rheineck Poststrasse 2, 9424 Rheineck, Switzerland"><name>Maillardos Café</name><description>https://maps.google.com/?cid=12301460218095847633
            
            Poststrasse 2, 9424 Rheineck, Switzerland</description><styleUrl>#icon-1534-0288D1</styleUrl><Point><extrude>0</extrude><altitudeMode>clampToGround</altitudeMode><coordinates>9.5892613,47.4672881,0</coordinates></Point></Placemark><Placemark search_term="Popotes Cafe Rue Lesbroussart 107, 1050 Brussels, Belgium" id="ChIJCaNBAxvFw0cRCX4JTe-jmEg"><name>Popotes Ixelles</name><description>https://maps.google.com/?cid=5231111215375810057
            
            Rue Lesbroussart 107, 1050 Ixelles, Belgium</description><styleUrl>#icon-1534-0288D1</styleUrl><Point><extrude>0</extrude><altitudeMode>clampToGround</altitudeMode><coordinates>4.3654972,50.8277155,0</coordinates></Point></Placemark><Placemark id="ChIJvRD1ClIvjEcR3bBROcHlxnA" search_term="Ordinary Man Rue du Petit Chène 28, 1003 Lausanne, Switzerland"><name>Ordinary Man | Coffee - Food - Art</name><description>https://maps.google.com/?cid=8126435195689742557
            
            Rue du Petit-Chêne 28, 1003 Lausanne, Switzerland</description><styleUrl>#icon-1534-0288D1</styleUrl><Point><extrude>0</extrude><altitudeMode>clampToGround</altitudeMode><coordinates>6.6308674,46.518648299999995,0</coordinates></Point></Placemark><Placemark id="ChIJHdC9g0mjpBIR_S5xF4cUxdg" search_term="On y va Gracia Carrer de Verdi, 4, Gràcia, 08012 Barcelona, Spain"><name>Onyva Coffee - Gracia</name><description>https://maps.google.com/?cid=15619913453050867453
            
            C/ de Verdi, 4, Gràcia, 08012 Barcelona, Spain</description><styleUrl>#icon-1534-0288D1</styleUrl><Point><extrude>0</extrude><altitudeMode>clampToGround</altitudeMode><coordinates>2.157798,41.403078099999995,0</coordinates></Point></Placemark>